{"type":"Topology","objects":{"03-response-times-trim":{"type":"GeometryCollection","crs":{"type":"name","properties":{"name":"urn:ogc:def:crs:OGC:1.3:CRS84"}},"geometries":[{"type":"Point","properties":{"service":"Atkins","time":0,"date":"2/20/05","addr":"729732nd AVE","type":"Building fire","lat":41.964,"long":-91.875},"coordinates":[1736,4232]},{"type":"Point","properties":{"service":"Atkins","time":10,"date":"10/20/05","addr":"317269th ST","type":"Building fire","lat":42.021,"long":-91.878},"coordinates":[1734,4509]},{"type":"Point","properties":{"service":"Atkins","time":4,"date":"11/25/05","addr":"86Cardinal AVE","type":"Building fire","lat":41.997,"long":-91.869},"coordinates":[1742,4392]},{"type":"Point","properties":{"service":"Atkins","time":10,"date":"10/1/07","addr":"729732nd AVE","type":"Building fire","lat":41.964,"long":-91.875},"coordinates":[1736,4232]},{"type":"Point","properties":{"service":"Atkins","time":5,"date":"11/25/07","addr":"4032nd AVE","type":"Fires in structure other than in a building","lat":41.993,"long":-91.863},"coordinates":[1748,4373]},{"type":"Point","properties":{"service":"Atkins","time":5,"date":"12/16/07","addr":"1023rd Ave.","type":"Building fire","lat":41.996,"long":-91.864},"coordinates":[1747,4387]},{"type":"Point","properties":{"service":"Atkins","time":7,"date":"11/11/08","addr":"730133rd AVE","type":"Fires in structure other than in a building","lat":41.965,"long":-91.853},"coordinates":[1757,4237]},{"type":"Point","properties":{"service":"Atkins","time":7,"date":"11/19/08","addr":"718031st AVE","type":"Fires in structure other than in a building","lat":41.98,"long":-91.887},"coordinates":[1725,4310]},{"type":"Point","properties":{"service":"Atkins","time":13,"date":"1/16/09","addr":"307373rd ST","type":"Building fire","lat":41.968,"long":-91.899},"coordinates":[1714,4251]},{"type":"Point","properties":{"service":"Atkins","time":2,"date":"8/9/09","addr":"3142nd AVE","type":"Building fire","lat":41.994,"long":-91.863},"coordinates":[1748,4378]},{"type":"Point","properties":{"service":"Atkins","time":10,"date":"6/22/10","addr":"725130th AVE","type":"Building fire","lat":41.972,"long":-91.912},"coordinates":[1701,4271]},{"type":"Point","properties":{"service":"Atkins","time":6,"date":"8/14/10","addr":"4032nd ST","type":"Trash or rubbish fire,contained","lat":41.995,"long":-91.867},"coordinates":[1744,4382]},{"type":"Point","properties":{"service":"Atkins","time":5,"date":"7/15/11","addr":"2174th AVE","type":"Building fire","lat":41.995,"long":-91.867},"coordinates":[1744,4382]},{"type":"Point","properties":{"service":"Atkins","time":4,"date":"10/18/11","addr":"100Main AVE","type":"Building fire","lat":41.996,"long":-91.862},"coordinates":[1749,4387]},{"type":"Point","properties":{"service":"Atkins","time":14,"date":"9/5/12","addr":"6769Benton-Linn RD","type":"Building fire","lat":42.077,"long":-91.835},"coordinates":[1774,4781]},{"type":"Point","properties":{"service":"Atkins","time":10,"date":"5/24/13","addr":"694731st AVE","type":"Building fire","lat":42.014,"long":-91.893},"coordinates":[1719,4475]},{"type":"Point","properties":{"service":"Atkins","time":3,"date":"9/18/13","addr":"and Census Tract 2410.01","type":"Building fire","lat":41.997,"long":-91.862},"coordinates":[1749,4392]},{"type":"Point","properties":{"service":"Atkins","time":9,"date":"8/5/14","addr":"295272nd ST","type":"Building fire","lat":41.978,"long":-91.912},"coordinates":[1701,4300]},{"type":"Point","properties":{"service":"Belle Plaine","time":4,"date":"11/13/04","addr":"1522SUNSET DR","type":"Building fire","lat":41.901,"long":-92.266},"coordinates":[1365,3926]},{"type":"Point","properties":{"service":"Belle Plaine","time":11,"date":"1/31/05","addr":"11211TH ST","type":"Building fire","lat":41.895,"long":-92.286},"coordinates":[1346,3897]},{"type":"Point","properties":{"service":"Belle Plaine","time":6,"date":"3/10/05","addr":"20811TH ST","type":"Building fire","lat":41.895,"long":-92.285},"coordinates":[1347,3897]},{"type":"Point","properties":{"service":"Belle Plaine","time":7,"date":"8/21/05","addr":"15124TH AVE","type":"Building fire","lat":41.9,"long":-92.284},"coordinates":[1348,3921]},{"type":"Point","properties":{"service":"Belle Plaine","time":7,"date":"10/22/05","addr":"130610TH AVE Apt 1","type":"Building fire","lat":41.898,"long":-92.273},"coordinates":[1358,3911]},{"type":"Point","properties":{"service":"Belle Plaine","time":6,"date":"1/15/13","addr":"15126th AVE","type":"Building fire","lat":41.9,"long":-92.28},"coordinates":[1352,3921]},{"type":"Point","properties":{"service":"Belle Plaine","time":18,"date":"8/3/13","addr":"3890w","type":"Building fire","lat":41.877,"long":-92.341},"coordinates":[1294,3809]},{"type":"Point","properties":{"service":"Belle Plaine","time":6,"date":"10/9/13","addr":"80713ST","type":"Building fire","lat":41.897,"long":-92.276},"coordinates":[1356,3906]},{"type":"Point","properties":{"service":"Belle Plaine","time":3,"date":"10/20/13","addr":"14036th AVE","type":"Building fire","lat":41.898,"long":-92.279},"coordinates":[1353,3911]},{"type":"Point","properties":{"service":"Belle Plaine","time":5,"date":"11/16/13","addr":"16067th AVE","type":"Building fire","lat":41.901,"long":-92.279},"coordinates":[1353,3926]},{"type":"Point","properties":{"service":"Belle Plaine","time":4,"date":"12/21/13","addr":"7018th AVE","type":"Building fire","lat":41.891,"long":-92.276},"coordinates":[1356,3877]},{"type":"Point","properties":{"service":"Belle Plaine","time":15,"date":"1/26/14","addr":"762916th AVE","type":"Building fire","lat":41.917,"long":-92.186},"coordinates":[1441,4003]},{"type":"Point","properties":{"service":"Belle Plaine","time":12,"date":"2/9/14","addr":"777213th ave dr AVE","type":"Building fire","lat":41.896,"long":-92.276},"coordinates":[1356,3901]},{"type":"Point","properties":{"service":"Belle Plaine","time":23,"date":"2/25/14","addr":"3069390th ST","type":"Building fire","lat":41.861,"long":-92.327},"coordinates":[1307,3731]},{"type":"Point","properties":{"service":"Belle Plaine","time":11,"date":"5/25/14","addr":"104maple ST","type":"Building fire","lat":41.905,"long":-92.18},"coordinates":[1447,3945]},{"type":"Point","properties":{"service":"Belle Plaine","time":4,"date":"9/20/14","addr":"60313th ST","type":"Building fire","lat":41.897,"long":-92.28},"coordinates":[1352,3906]},{"type":"Point","properties":{"service":"Belle Plaine","time":6,"date":"11/12/14","addr":"50617th STS","type":"Chimney or flue fire,confined to chimney or flue","lat":41.902,"long":-92.281},"coordinates":[1351,3931]},{"type":"Point","properties":{"service":"Blairstown","time":17,"date":"3/21/07","addr":"752617th AVE","type":"Building fire","lat":41.932,"long":-92.162},"coordinates":[1464,4076]},{"type":"Point","properties":{"service":"Blairstown","time":12,"date":"4/5/07","addr":"795722nd AVDR","type":"Building fire","lat":41.877,"long":-92.065},"coordinates":[1556,3809]},{"type":"Point","properties":{"service":"Blairstown","time":6,"date":"1/25/08","addr":"506Prospect ST","type":"Building fire","lat":41.907,"long":-92.077},"coordinates":[1545,3955]},{"type":"Point","properties":{"service":"Blairstown","time":8,"date":"4/15/09","addr":"783716th AVTR","type":"Building fire","lat":41.887,"long":-92.165},"coordinates":[1461,3858]},{"type":"Point","properties":{"service":"Blairstown","time":4,"date":"9/30/10","addr":"303SE charles ST Apt 14","type":"Cooking fire,confined to container","lat":41.904,"long":-92.083},"coordinates":[1539,3940]},{"type":"Point","properties":{"service":"Blairstown","time":5,"date":"1/31/11","addr":"300locust ST Apt 1","type":"Building fire","lat":41.909,"long":-92.084},"coordinates":[1538,3965]},{"type":"Point","properties":{"service":"Blairstown","time":5,"date":"8/13/11","addr":"604Locust ST NE","type":"Building fire","lat":41.911,"long":-92.084},"coordinates":[1538,3974]},{"type":"Point","properties":{"service":"Blairstown","time":13,"date":"2/3/12","addr":"248277th STS","type":"Building fire","lat":41.906,"long":-92.046},"coordinates":[1574,3950]},{"type":"Point","properties":{"service":"Blairstown","time":3,"date":"4/24/12","addr":"308fremont ST SE","type":"Cooking fire,confined to container","lat":41.906,"long":-92.08},"coordinates":[1542,3950]},{"type":"Point","properties":{"service":"Blairstown","time":4,"date":"3/3/13","addr":"109Spruce ST","type":"Cooking fire,confined to container","lat":41.909,"long":-92.086},"coordinates":[1536,3965]},{"type":"Point","properties":{"service":"Blairstown","time":5,"date":"8/18/13","addr":"and The Apartment above the Bent Bucket corner bar.","type":"Building fire","lat":41.909,"long":-92.085},"coordinates":[1537,3965]},{"type":"Point","properties":{"service":"Blairstown","time":15,"date":"10/19/13","addr":"783319th AVE","type":"Building fire","lat":41.884,"long":-92.127},"coordinates":[1497,3843]},{"type":"Point","properties":{"service":"Blairstown","time":7,"date":"11/14/13","addr":"207NE Prospect","type":"Building fire","lat":41.908,"long":-92.082},"coordinates":[1540,3960]},{"type":"Point","properties":{"service":"Blairstown","time":15,"date":"4/9/14","addr":"169578th ST","type":"Building fire","lat":41.892,"long":-92.163},"coordinates":[1463,3882]},{"type":"Point","properties":{"service":"Blairstown","time":11,"date":"11/1/14","addr":"167177ST","type":"Trash or rubbish fire,contained","lat":41.906,"long":-92.161},"coordinates":[1465,3950]},{"type":"Point","properties":{"service":"Garrison","time":4,"date":"1/27/04","addr":"102S Sycamore ST","type":"Building fire","lat":42.144,"long":-92.144},"coordinates":[1481,5106]},{"type":"Point","properties":{"service":"Garrison","time":4,"date":"10/15/04","addr":"310W Main ST","type":"Building fire","lat":42.144,"long":-92.146},"coordinates":[1479,5106]},{"type":"Point","properties":{"service":"Garrison","time":5,"date":"12/13/04","addr":"301Walnut ST","type":"Building fire","lat":42.142,"long":-92.14},"coordinates":[1485,5097]},{"type":"Point","properties":{"service":"Garrison","time":3,"date":"12/27/04","addr":"302E Oak ST","type":"Building fire","lat":42.143,"long":-92.141},"coordinates":[1484,5102]},{"type":"Point","properties":{"service":"Garrison","time":6,"date":"12/23/06","addr":"603919AVE","type":"Building fire","lat":42.147,"long":-92.124},"coordinates":[1500,5121]},{"type":"Point","properties":{"service":"Garrison","time":5,"date":"2/5/07","addr":"207E Oak ST","type":"Building fire","lat":42.143,"long":-92.142},"coordinates":[1483,5102]},{"type":"Point","properties":{"service":"Garrison","time":6,"date":"8/23/07","addr":"165664ST","type":"Fires in structure other than in a building","lat":42.094,"long":-92.172},"coordinates":[1454,4863]},{"type":"Point","properties":{"service":"Garrison","time":3,"date":"11/6/07","addr":"404W Maple ST","type":"Building fire","lat":42.145,"long":-92.147},"coordinates":[1478,5111]},{"type":"Point","properties":{"service":"Garrison","time":8,"date":"1/18/09","addr":"56ST","type":"Building fire","lat":42.211,"long":-92.192},"coordinates":[1435,5432]},{"type":"Point","properties":{"service":"Garrison","time":10,"date":"4/6/10","addr":"201160ST. Dr.","type":"Building fire","lat":42.148,"long":-92.107},"coordinates":[1516,5126]},{"type":"Point","properties":{"service":"Garrison","time":12,"date":"11/25/10","addr":"64ST","type":"Building fire","lat":42.094,"long":-92.144},"coordinates":[1481,4863]},{"type":"Point","properties":{"service":"Garrison","time":1,"date":"4/2/11","addr":"597817th Avenue","type":"Building fire","lat":42.155,"long":-92.163},"coordinates":[1463,5160]},{"type":"Point","properties":{"service":"Garrison","time":2,"date":"6/30/11","addr":"404W Maple Street","type":"Building fire","lat":42.145,"long":-92.147},"coordinates":[1478,5111]},{"type":"Point","properties":{"service":"Garrison","time":5,"date":"6/30/11","addr":"206Beach Avenue","type":"Building fire","lat":42.144,"long":-92.144},"coordinates":[1481,5106]},{"type":"Point","properties":{"service":"Garrison","time":10,"date":"7/12/11","addr":"301Cedar Street","type":"Building fire","lat":42.141,"long":-92.141},"coordinates":[1484,5092]},{"type":"Point","properties":{"service":"Garrison","time":5,"date":"5/25/12","addr":"302E Oak ST","type":"Building fire","lat":42.143,"long":-92.141},"coordinates":[1484,5102]},{"type":"Point","properties":{"service":"Garrison","time":5,"date":"8/3/12","addr":"167158th ST","type":"Building fire","lat":42.181,"long":-92.167},"coordinates":[1459,5286]},{"type":"Point","properties":{"service":"Garrison","time":4,"date":"2/28/13","addr":"307Pine ST","type":"Building fire","lat":42.142,"long":-92.141},"coordinates":[1484,5097]},{"type":"Point","properties":{"service":"Garrison","time":7,"date":"5/6/14","addr":"203Oak St.","type":"Building fire","lat":42.143,"long":-92.143},"coordinates":[1482,5102]},{"type":"Point","properties":{"service":"Garrison","time":13,"date":"6/27/14","addr":"154761st ST","type":"Building fire","lat":42.138,"long":-92.193},"coordinates":[1434,5077]},{"type":"Point","properties":{"service":"Keystone","time":12,"date":"10/5/12","addr":"668216th Ave.","type":"Building fire","lat":42.054,"long":-92.182},"coordinates":[1445,4669]},{"type":"Point","properties":{"service":"Keystone","time":14,"date":"10/29/14","addr":"126565th street","type":"Building fire","lat":42.08,"long":-92.233},"coordinates":[1396,4795]},{"type":"Point","properties":{"service":"Keystone","time":8,"date":"11/2/14","addr":"152168th street","type":"Building fire","lat":42.037,"long":-92.198},"coordinates":[1430,4587]},{"type":"Point","properties":{"service":"Keystone","time":13,"date":"11/30/14","addr":"152168th street","type":"Building fire","lat":42.037,"long":-92.198},"coordinates":[1430,4587]},{"type":"Point","properties":{"service":"Mount Auburn","time":10,"date":"4/10/06","addr":"141253rd Street","type":"Building fire","lat":42.254,"long":-92.162},"coordinates":[1464,5641]},{"type":"Point","properties":{"service":"Mount Auburn","time":16,"date":"9/9/06","addr":"167052nd Street","type":"Building fire","lat":42.268,"long":-92.15},"coordinates":[1475,5709]},{"type":"Point","properties":{"service":"Mount Auburn","time":1,"date":"10/31/06","addr":"City","type":"Fires in structure other than in a building","lat":42.257,"long":-92.093},"coordinates":[1529,5655]},{"type":"Point","properties":{"service":"Newhall","time":12,"date":"5/1/04","addr":"240973rd ST","type":"Building fire","lat":41.964,"long":-92.012},"coordinates":[1606,4232]},{"type":"Point","properties":{"service":"Newhall","time":9,"date":"5/2/04","addr":"240973rd ST","type":"Building fire","lat":41.964,"long":-92.012},"coordinates":[1606,4232]},{"type":"Point","properties":{"service":"Newhall","time":10,"date":"5/1/05","addr":"671925th AVE","type":"Building fire","lat":42.031,"long":-92.01},"coordinates":[1608,4557]},{"type":"Point","properties":{"service":"Newhall","time":9,"date":"5/29/05","addr":"263169th ST","type":"Building fire","lat":42.025,"long":-91.983},"coordinates":[1634,4528]},{"type":"Point","properties":{"service":"Newhall","time":7,"date":"5/29/05","addr":"263169th ST","type":"Building fire","lat":42.025,"long":-91.983},"coordinates":[1634,4528]},{"type":"Point","properties":{"service":"Newhall","time":16,"date":"8/18/05","addr":"662726th AVE","type":"Building fire","lat":42.036,"long":-91.99},"coordinates":[1627,4582]},{"type":"Point","properties":{"service":"Newhall","time":7,"date":"1/11/07","addr":"1021st ST E","type":"Building fire","lat":41.995,"long":-91.97},"coordinates":[1646,4382]},{"type":"Point","properties":{"service":"Newhall","time":8,"date":"3/27/07","addr":"246070th ST","type":"Building fire","lat":42.007,"long":-92.017},"coordinates":[1602,4441]},{"type":"Point","properties":{"service":"Newhall","time":12,"date":"2/10/08","addr":"677424th ave","type":"Building fire","lat":42.021,"long":-92.029},"coordinates":[1590,4509]},{"type":"Point","properties":{"service":"Newhall","time":5,"date":"10/17/08","addr":"4043rd St E","type":"Building fire","lat":41.993,"long":-91.964},"coordinates":[1652,4373]},{"type":"Point","properties":{"service":"Newhall","time":4,"date":"2/20/09","addr":"102railroad st","type":"Fuel burner/boiler malfunction,fire confined","lat":41.996,"long":-91.969},"coordinates":[1647,4387]},{"type":"Point","properties":{"service":"Newhall","time":11,"date":"5/3/09","addr":"287370th St","type":"Building fire","lat":42.007,"long":-91.938},"coordinates":[1677,4441]},{"type":"Point","properties":{"service":"Newhall","time":13,"date":"6/10/09","addr":"662726th Ave","type":"Trash or rubbish fire,contained","lat":42.036,"long":-91.99},"coordinates":[1627,4582]},{"type":"Point","properties":{"service":"Newhall","time":7,"date":"8/17/09","addr":"5062nd Street East","type":"Building fire","lat":41.994,"long":-91.962},"coordinates":[1654,4378]},{"type":"Point","properties":{"service":"Newhall","time":9,"date":"12/13/10","addr":"676727th Ave","type":"Building fire","lat":42.042,"long":-91.976},"coordinates":[1641,4611]},{"type":"Point","properties":{"service":"Newhall","time":16,"date":"7/27/11","addr":"728126th Ave","type":"Building fire","lat":41.966,"long":-91.989},"coordinates":[1628,4242]},{"type":"Point","properties":{"service":"Newhall","time":7,"date":"11/17/11","addr":"Ave and St","type":"Building fire","lat":41.996,"long":-91.968},"coordinates":[1648,4387]},{"type":"Point","properties":{"service":"Newhall","time":9,"date":"10/12/12","addr":"258171st ST","type":"Building fire","lat":41.993,"long":-91.993},"coordinates":[1624,4373]},{"type":"Point","properties":{"service":"Newhall","time":13,"date":"5/8/13","addr":"737226th ave","type":"Building fire","lat":41.953,"long":-91.988},"coordinates":[1629,4178]},{"type":"Point","properties":{"service":"Newhall","time":10,"date":"10/20/14","addr":"662427th AVE","type":"Fuel burner/boiler malfunction,fire confined","lat":42.05,"long":-91.971},"coordinates":[1645,4650]},{"type":"Point","properties":{"service":"Norway Fire &Rescue","time":13,"date":"11/30/04","addr":"326075TH ST","type":"Building fire","lat":41.931,"long":-91.857},"coordinates":[1754,4072]},{"type":"Point","properties":{"service":"Norway Fire &Rescue","time":11,"date":"4/6/05","addr":"263275TH ST","type":"Building fire","lat":41.934,"long":-91.98},"coordinates":[1637,4086]},{"type":"Point","properties":{"service":"Norway Fire &Rescue","time":18,"date":"3/13/07","addr":"31AVE","type":"Building fire","lat":41.876,"long":-91.89},"coordinates":[1722,3804]},{"type":"Point","properties":{"service":"Norway Fire &Rescue","time":8,"date":"11/27/08","addr":"105T AVE","type":"Building fire","lat":41.852,"long":-91.928},"coordinates":[1686,3688]},{"type":"Point","properties":{"service":"Norway Fire &Rescue","time":14,"date":"2/23/09","addr":"28TH AVE","type":"Building fire","lat":41.897,"long":-91.949},"coordinates":[1666,3906]},{"type":"Point","properties":{"service":"Norway Fire &Rescue","time":8,"date":"6/30/10","addr":"319077TH STREET TRL","type":"Building fire","lat":41.901,"long":-91.873},"coordinates":[1738,3926]},{"type":"Point","properties":{"service":"Norway Fire &Rescue","time":1,"date":"10/17/11","addr":"105Railroad ST","type":"Building fire","lat":41.902,"long":-91.922},"coordinates":[1692,3931]},{"type":"Point","properties":{"service":"Norway Fire &Rescue","time":9,"date":"1/8/12","addr":"2Liberty ST","type":"Building fire","lat":41.891,"long":-91.985},"coordinates":[1632,3877]},{"type":"Point","properties":{"service":"Norway Fire &Rescue","time":4,"date":"6/3/12","addr":"307475th ST","type":"Building fire","lat":41.931,"long":-91.895},"coordinates":[1717,4072]},{"type":"Point","properties":{"service":"Shellsburg","time":6,"date":"3/22/04","addr":"and NW 61ST LANE RD","type":"Building fire","lat":42.139,"long":-91.877},"coordinates":[1735,5082]},{"type":"Point","properties":{"service":"Shellsburg","time":0,"date":"10/22/04","addr":"6676S 32ND AVE. AVE S","type":"Fire in mobile home used as fixed residence","lat":42.095,"long":-91.869},"coordinates":[1742,4868]},{"type":"Point","properties":{"service":"Shellsburg","time":10,"date":"9/5/05","addr":"650532nd AVE","type":"Building fire","lat":42.076,"long":-91.871},"coordinates":[1740,4776]},{"type":"Point","properties":{"service":"Shellsburg","time":6,"date":"11/2/05","addr":"217Maxwell DR","type":"Building fire","lat":42.088,"long":-91.874},"coordinates":[1737,4834]},{"type":"Point","properties":{"service":"Shellsburg","time":5,"date":"1/2/06","addr":"659432nd AVE","type":"Building fire","lat":42.067,"long":-91.869},"coordinates":[1742,4732]},{"type":"Point","properties":{"service":"Shellsburg","time":18,"date":"2/24/07","addr":"6155Pearl Street ST SE","type":"Building fire","lat":42.095,"long":-91.869},"coordinates":[1742,4868]},{"type":"Point","properties":{"service":"Shellsburg","time":4,"date":"3/16/08","addr":"401Canton ST","type":"Fires in structure other than in a building","lat":42.099,"long":-91.873},"coordinates":[1738,4888]},{"type":"Point","properties":{"service":"Shellsburg","time":10,"date":"4/12/09","addr":"601930th ave DR","type":"Fires in structure other than in a building","lat":42.092,"long":-91.913},"coordinates":[1700,4854]},{"type":"Point","properties":{"service":"Shellsburg","time":16,"date":"11/6/09","addr":"334159th street TRL","type":"Building fire","lat":42.16,"long":-91.875},"coordinates":[1736,5184]},{"type":"Point","properties":{"service":"Shellsburg","time":7,"date":"3/30/10","addr":"628832nd AVE","type":"Building fire","lat":42.112,"long":-91.871},"coordinates":[1740,4951]},{"type":"Point","properties":{"service":"Shellsburg","time":18,"date":"2/8/11","addr":"318662nd ST","type":"Building fire","lat":42.123,"long":-91.876},"coordinates":[1736,5004]},{"type":"Point","properties":{"service":"Shellsburg","time":10,"date":"5/1/11","addr":"667829th AVE","type":"Building fire","lat":42.054,"long":-91.932},"coordinates":[1682,4669]},{"type":"Point","properties":{"service":"Shellsburg","time":16,"date":"7/18/11","addr":"599329th AVE","type":"Building fire","lat":42.098,"long":-91.928},"coordinates":[1686,4883]},{"type":"Point","properties":{"service":"Shellsburg","time":7,"date":"9/15/11","addr":"207Grove ST","type":"Chimney or flue fire,confined to chimney or flue","lat":42.095,"long":-91.872},"coordinates":[1739,4868]},{"type":"Point","properties":{"service":"Shellsburg","time":10,"date":"10/9/11","addr":"667632nd AVE Apt lot 88","type":"Building fire","lat":42.055,"long":-91.867},"coordinates":[1744,4674]},{"type":"Point","properties":{"service":"Shellsburg","time":15,"date":"12/9/11","addr":"294561street TRL","type":"Building fire","lat":42.125,"long":-91.914},"coordinates":[1699,5014]},{"type":"Point","properties":{"service":"Shellsburg","time":11,"date":"12/10/11","addr":"294561street TRL","type":"Building fire","lat":42.125,"long":-91.914},"coordinates":[1699,5014]},{"type":"Point","properties":{"service":"Shellsburg","time":7,"date":"8/13/12","addr":"838186th ST","type":"Building fire","lat":42.095,"long":-91.869},"coordinates":[1742,4868]},{"type":"Point","properties":{"service":"Urbana Polk Twp","time":8,"date":"2/8/05","addr":"280455ST","type":"Building fire","lat":42.224,"long":-91.947},"coordinates":[1668,5495]},{"type":"Point","properties":{"service":"Urbana Polk Twp","time":10,"date":"7/21/05","addr":"290856St TRL","type":"Building fire","lat":42.201,"long":-91.928},"coordinates":[1686,5383]},{"type":"Point","properties":{"service":"Urbana Polk Twp","time":2,"date":"12/4/05","addr":"5369Hutton DR","type":"Fires in structure other than in a building","lat":42.242,"long":-91.882},"coordinates":[1730,5583]},{"type":"Point","properties":{"service":"Urbana Polk Twp","time":4,"date":"3/11/06","addr":"336855th STTR","type":"Building fire","lat":42.226,"long":-91.884},"coordinates":[1728,5505]},{"type":"Point","properties":{"service":"Urbana Polk Twp","time":6,"date":"3/14/06","addr":"544633rd AVE","type":"Building fire","lat":42.234,"long":-91.842},"coordinates":[1768,5544]},{"type":"Point","properties":{"service":"Urbana Polk Twp","time":1,"date":"3/22/06","addr":"327851st ST","type":"Building fire","lat":42.28,"long":-91.863},"coordinates":[1748,5767]},{"type":"Point","properties":{"service":"Urbana Polk Twp","time":4,"date":"3/22/06","addr":"501South ST","type":"Fire in mobile home used as fixed residence","lat":42.223,"long":-91.877},"coordinates":[1735,5490]},{"type":"Point","properties":{"service":"Urbana Polk Twp","time":2,"date":"8/26/06","addr":"101N Union AVE","type":"Cooking fire,confined to container","lat":42.226,"long":-91.872},"coordinates":[1739,5505]},{"type":"Point","properties":{"service":"Urbana Polk Twp","time":5,"date":"10/15/06","addr":"401Brush AVE","type":"Building fire","lat":42.221,"long":-91.875},"coordinates":[1736,5481]},{"type":"Point","properties":{"service":"Urbana Polk Twp","time":5,"date":"11/16/06","addr":"503W Main ST","type":"Building fire","lat":42.225,"long":-91.878},"coordinates":[1734,5500]},{"type":"Point","properties":{"service":"Urbana Polk Twp","time":5,"date":"1/30/07","addr":"541432nd AVE","type":"Building fire","lat":42.239,"long":-91.871},"coordinates":[1740,5568]},{"type":"Point","properties":{"service":"Urbana Polk Twp","time":4,"date":"11/17/07","addr":"339756th STDR","type":"Building fire","lat":42.205,"long":-91.837},"coordinates":[1773,5403]},{"type":"Point","properties":{"service":"Urbana Polk Twp","time":2,"date":"5/3/08","addr":"306W Main ST","type":"Building fire","lat":42.226,"long":-91.876},"coordinates":[1736,5505]},{"type":"Point","properties":{"service":"Urbana Polk Twp","time":15,"date":"7/14/09","addr":"535730th AVE","type":"Building fire","lat":42.248,"long":-91.912},"coordinates":[1701,5612]},{"type":"Point","properties":{"service":"Urbana Polk Twp","time":9,"date":"1/26/10","addr":"108Richland AVE","type":"Building fire","lat":42.224,"long":-91.882},"coordinates":[1730,5495]},{"type":"Point","properties":{"service":"Urbana Polk Twp","time":5,"date":"11/24/10","addr":"606Hope AVE","type":"Building fire","lat":42.219,"long":-91.884},"coordinates":[1728,5471]},{"type":"Point","properties":{"service":"Urbana Polk Twp","time":12,"date":"12/6/10","addr":"554429th AVE","type":"Chimney or flue fire,confined to chimney or flue","lat":42.219,"long":-91.929},"coordinates":[1685,5471]},{"type":"Point","properties":{"service":"Urbana Polk Twp","time":8,"date":"4/4/11","addr":"105Brush AVE","type":"Building fire","lat":42.224,"long":-91.875},"coordinates":[1736,5495]},{"type":"Point","properties":{"service":"Urbana Polk Twp","time":13,"date":"6/26/12","addr":"529933rd Avenue Dr.","type":"Building fire","lat":42.256,"long":-91.849},"coordinates":[1761,5651]},{"type":"Point","properties":{"service":"Urbana Polk Twp","time":12,"date":"12/10/12","addr":"2560Bing Miller LN","type":"Fire in mobile prop. used as a fixed struc.,other","lat":42.222,"long":-91.902},"coordinates":[1711,5485]},{"type":"Point","properties":{"service":"Urbana Polk Twp","time":10,"date":"2/16/13","addr":"568132nd AVE","type":"Building fire","lat":42.198,"long":-91.877},"coordinates":[1735,5369]},{"type":"Point","properties":{"service":"Urbana Polk Twp","time":16,"date":"3/21/14","addr":"290351st. St.","type":"Building fire","lat":42.283,"long":-91.927},"coordinates":[1687,5782]},{"type":"Point","properties":{"service":"Van Horne","time":8,"date":"4/8/05","addr":"220972nd Street","type":"Building fire","lat":41.982,"long":-92.062},"coordinates":[1559,4319]},{"type":"Point","properties":{"service":"Van Horne","time":3,"date":"4/28/05","addr":"5th Avenue 6th Street","type":"Cooking fire,confined to container","lat":42.011,"long":-92.093},"coordinates":[1529,4460]},{"type":"Point","properties":{"service":"Van Horne","time":2,"date":"7/12/05","addr":"892nd Avenue","type":"Building fire","lat":42.009,"long":-92.084},"coordinates":[1538,4450]},{"type":"Point","properties":{"service":"Van Horne","time":3,"date":"3/16/12","addr":"214770th ST","type":"Building fire","lat":42.007,"long":-92.077},"coordinates":[1545,4441]},{"type":"Point","properties":{"service":"Van Horne","time":5,"date":"10/3/12","addr":"124Main ST","type":"Building fire","lat":42.008,"long":-92.092},"coordinates":[1530,4446]},{"type":"Point","properties":{"service":"Van Horne","time":5,"date":"10/3/12","addr":"5042nd AVE","type":"Building fire","lat":42.009,"long":-92.091},"coordinates":[1531,4450]},{"type":"Point","properties":{"service":"Van Horne","time":5,"date":"10/3/12","addr":"122Main ST","type":"Building fire","lat":42.008,"long":-92.091},"coordinates":[1531,4446]},{"type":"Point","properties":{"service":"Van Horne","time":6,"date":"2/16/14","addr":"3008th ST Apt 10","type":"Cooking fire,confined to container","lat":42.01,"long":-92.096},"coordinates":[1527,4455]},{"type":"Point","properties":{"service":"Van Horne","time":6,"date":"3/14/14","addr":"1109th ST","type":"Building fire","lat":42.008,"long":-92.097},"coordinates":[1526,4446]},{"type":"Point","properties":{"service":"Van Horne","time":2,"date":"8/18/14","addr":"3008th ST Apt 10","type":"Cooking fire,confined to container","lat":42.01,"long":-92.096},"coordinates":[1527,4455]},{"type":"Point","properties":{"service":"Van Horne","time":5,"date":"12/8/14","addr":"1042nd ST","type":"Trash or rubbish fire,contained","lat":42.008,"long":-92.087},"coordinates":[1535,4446]},{"type":"Point","properties":{"service":"Vinton","time":6,"date":"12/11/05","addr":"16091st ST Apt #5","type":"Cooking fire,confined to container","lat":42.17,"long":-92.043},"coordinates":[1577,5233]},{"type":"Point","properties":{"service":"Vinton","time":4,"date":"5/13/07","addr":"1007A AVE","type":"Building fire","lat":42.162,"long":-92.026},"coordinates":[1593,5194]},{"type":"Point","properties":{"service":"Vinton","time":3,"date":"6/15/07","addr":"207B AVE","type":"Building fire","lat":42.169,"long":-92.027},"coordinates":[1592,5228]},{"type":"Point","properties":{"service":"Vinton","time":2,"date":"6/21/07","addr":"305C AVE","type":"Building fire","lat":42.169,"long":-92.028},"coordinates":[1591,5228]},{"type":"Point","properties":{"service":"Vinton","time":7,"date":"7/26/07","addr":"637323rd AVE","type":"Building fire","lat":42.1,"long":-92.054},"coordinates":[1566,4893]},{"type":"Point","properties":{"service":"Vinton","time":1,"date":"8/27/07","addr":"S K AVE","type":"Trash or rubbish fire,contained","lat":42.16,"long":-92.038},"coordinates":[1582,5184]},{"type":"Point","properties":{"service":"Vinton","time":6,"date":"9/14/07","addr":"7053rd AVE","type":"Building fire","lat":42.164,"long":-92.022},"coordinates":[1597,5204]},{"type":"Point","properties":{"service":"Vinton","time":7,"date":"11/8/07","addr":"403E 8th ST","type":"Building fire","lat":42.164,"long":-92.02},"coordinates":[1599,5204]},{"type":"Point","properties":{"service":"Vinton","time":8,"date":"12/18/07","addr":"28th AVE and 58th ST","type":"Building fire","lat":42.184,"long":-91.949},"coordinates":[1666,5301]},{"type":"Point","properties":{"service":"Vinton","time":5,"date":"4/21/08","addr":"512W 6th ST","type":"Building fire","lat":42.165,"long":-92.03},"coordinates":[1589,5208]},{"type":"Point","properties":{"service":"Vinton","time":2,"date":"5/15/08","addr":"715W 9th ST","type":"Cooking fire,confined to container","lat":42.163,"long":-92.032},"coordinates":[1587,5199]},{"type":"Point","properties":{"service":"Vinton","time":5,"date":"6/11/08","addr":"713W 3rd ST","type":"Building fire","lat":42.169,"long":-92.032},"coordinates":[1587,5228]},{"type":"Point","properties":{"service":"Vinton","time":13,"date":"6/15/08","addr":"214357th Street TRL","type":"Fires in structure other than in a building","lat":42.195,"long":-92.076},"coordinates":[1546,5354]},{"type":"Point","properties":{"service":"Vinton","time":12,"date":"8/6/08","addr":"235455th DR","type":"Fire in motor home,camper,recreational vehicle","lat":42.216,"long":-92.037},"coordinates":[1583,5456]},{"type":"Point","properties":{"service":"Vinton","time":2,"date":"11/21/08","addr":"708S 8th AVE","type":"Fire in mobile prop. used as a fixed struc.,other","lat":42.164,"long":-92.015},"coordinates":[1603,5204]},{"type":"Point","properties":{"service":"Vinton","time":5,"date":"11/24/08","addr":"9123rd AVE","type":"Cooking fire,confined to container","lat":42.162,"long":-92.021},"coordinates":[1598,5194]},{"type":"Point","properties":{"service":"Vinton","time":7,"date":"4/21/09","addr":"273961ST STREET LANE","type":"Building fire","lat":42.143,"long":-91.961},"coordinates":[1655,5102]},{"type":"Point","properties":{"service":"Vinton","time":8,"date":"5/31/09","addr":"1010A AVE","type":"Cooking fire,confined to container","lat":42.161,"long":-92.025},"coordinates":[1594,5189]},{"type":"Point","properties":{"service":"Vinton","time":9,"date":"6/8/09","addr":"290658th ST","type":"Building fire","lat":42.184,"long":-91.93},"coordinates":[1684,5301]},{"type":"Point","properties":{"service":"Vinton","time":2,"date":"7/13/09","addr":"210W 6th ST","type":"Building fire","lat":42.165,"long":-92.026},"coordinates":[1593,5208]},{"type":"Point","properties":{"service":"Vinton","time":7,"date":"11/20/09","addr":"907E AVE","type":"Building fire","lat":42.163,"long":-92.031},"coordinates":[1588,5199]},{"type":"Point","properties":{"service":"Vinton","time":3,"date":"11/23/09","addr":"11104TH AVE","type":"Building fire","lat":42.16,"long":-92.02},"coordinates":[1599,5184]},{"type":"Point","properties":{"service":"Vinton","time":3,"date":"6/29/10","addr":"8121st AVE","type":"Building fire","lat":42.163,"long":-92.024},"coordinates":[1595,5199]},{"type":"Point","properties":{"service":"Vinton","time":8,"date":"1/18/11","addr":"267154th ST","type":"Building fire","lat":42.239,"long":-91.974},"coordinates":[1642,5568]},{"type":"Point","properties":{"service":"Vinton","time":5,"date":"1/18/11","addr":"7076th AVE","type":"Chimney or flue fire,confined to chimney or flue","lat":42.164,"long":-92.018},"coordinates":[1601,5204]},{"type":"Point","properties":{"service":"Vinton","time":3,"date":"10/27/11","addr":"1601W D ST","type":"Chimney or flue fire,confined to chimney or flue","lat":42.174,"long":-92.04},"coordinates":[1580,5252]},{"type":"Point","properties":{"service":"Vinton","time":7,"date":"11/13/11","addr":"7042nd AVE","type":"Building fire","lat":42.164,"long":-92.023},"coordinates":[1596,5204]},{"type":"Point","properties":{"service":"Vinton","time":5,"date":"11/30/11","addr":"105M AVE","type":"Chimney or flue fire,confined to chimney or flue","lat":42.172,"long":-92.042},"coordinates":[1578,5242]},{"type":"Point","properties":{"service":"Vinton","time":8,"date":"12/24/11","addr":"609726th AVE","type":"Building fire","lat":42.138,"long":-91.99},"coordinates":[1627,5077]},{"type":"Point","properties":{"service":"Vinton","time":5,"date":"12/24/11","addr":"11093rd AVE","type":"Building fire","lat":42.161,"long":-92.022},"coordinates":[1597,5189]},{"type":"Point","properties":{"service":"Vinton","time":5,"date":"1/27/12","addr":"1008S 9th AVE","type":"Building fire","lat":42.161,"long":-92.014},"coordinates":[1604,5189]},{"type":"Point","properties":{"service":"Vinton","time":4,"date":"2/10/12","addr":"813W 3rd ST","type":"Fires in structure other than in a building","lat":42.169,"long":-92.033},"coordinates":[1586,5228]},{"type":"Point","properties":{"service":"Vinton","time":6,"date":"4/6/12","addr":"1611W 1st ST","type":"Cooking fire,confined to container","lat":42.17,"long":-92.044},"coordinates":[1576,5233]},{"type":"Point","properties":{"service":"Vinton","time":6,"date":"6/4/12","addr":"314W 5th ST","type":"Cooking fire,confined to container","lat":42.166,"long":-92.028},"coordinates":[1591,5213]},{"type":"Point","properties":{"service":"Vinton","time":9,"date":"7/25/12","addr":"645723rd AVE","type":"Building fire","lat":42.083,"long":-92.05},"coordinates":[1570,4810]},{"type":"Point","properties":{"service":"Vinton","time":5,"date":"8/13/12","addr":"1504S 2nd Ave","type":"Building fire","lat":42.156,"long":-92.022},"coordinates":[1597,5165]},{"type":"Point","properties":{"service":"Vinton","time":6,"date":"1/31/13","addr":"1021GOLF VIEW DR","type":"Chimney or flue fire,confined to chimney or flue","lat":42.176,"long":-92.012},"coordinates":[1606,5262]},{"type":"Point","properties":{"service":"Vinton","time":11,"date":"3/19/13","addr":"248054th ST","type":"Building fire","lat":42.239,"long":-92.011},"coordinates":[1607,5568]},{"type":"Point","properties":{"service":"Vinton","time":4,"date":"6/22/13","addr":"7106th AVE","type":"Building fire","lat":42.164,"long":-92.018},"coordinates":[1601,5204]},{"type":"Point","properties":{"service":"Vinton","time":5,"date":"9/12/13","addr":"419W 15th ST","type":"Building fire","lat":42.158,"long":-92.029},"coordinates":[1590,5174]},{"type":"Point","properties":{"service":"Vinton","time":7,"date":"12/11/13","addr":"514S K AVE","type":"Building fire","lat":42.166,"long":-92.037},"coordinates":[1583,5213]},{"type":"Point","properties":{"service":"Vinton","time":3,"date":"12/25/13","addr":"517W 6th ST","type":"Cooking fire,confined to container","lat":42.166,"long":-92.03},"coordinates":[1589,5213]},{"type":"Point","properties":{"service":"Vinton","time":13,"date":"1/5/14","addr":"644525th AVE","type":"Building fire","lat":42.083,"long":-92.014},"coordinates":[1604,4810]},{"type":"Point","properties":{"service":"Vinton","time":5,"date":"1/6/14","addr":"312E 4th ST","type":"Chimney or flue fire,confined to chimney or flue","lat":42.167,"long":-92.021},"coordinates":[1598,5218]},{"type":"Point","properties":{"service":"Vinton","time":6,"date":"1/11/14","addr":"1701W 1st ST","type":"Building fire","lat":42.17,"long":-92.044},"coordinates":[1576,5233]},{"type":"Point","properties":{"service":"Vinton","time":6,"date":"1/25/14","addr":"10151st AVE","type":"Chimney or flue fire,confined to chimney or flue","lat":42.161,"long":-92.025},"coordinates":[1594,5189]},{"type":"Point","properties":{"service":"Vinton","time":3,"date":"2/26/14","addr":"244963rd ST","type":"Chimney or flue fire,confined to chimney or flue","lat":42.109,"long":-92.019},"coordinates":[1600,4936]},{"type":"Point","properties":{"service":"Vinton","time":5,"date":"3/29/14","addr":"1609W 1st ST","type":"Cooking fire,confined to container","lat":42.17,"long":-92.043},"coordinates":[1577,5233]},{"type":"Point","properties":{"service":"Vinton","time":2,"date":"4/18/14","addr":"1002G AVE","type":"Building fire","lat":42.162,"long":-92.034},"coordinates":[1585,5194]},{"type":"Point","properties":{"service":"Vinton","time":6,"date":"5/8/14","addr":"704E 8th ST","type":"Building fire","lat":42.163,"long":-92.017},"coordinates":[1602,5199]},{"type":"Point","properties":{"service":"Vinton","time":5,"date":"5/29/14","addr":"906A AVE","type":"Building fire","lat":42.162,"long":-92.025},"coordinates":[1594,5194]},{"type":"Point","properties":{"service":"Vinton","time":4,"date":"10/7/14","addr":"610E 6th ST","type":"Building fire","lat":42.166,"long":-92.017},"coordinates":[1602,5213]},{"type":"Point","properties":{"service":"Ladora","time":4,"date":"12/4/06","addr":"and 211eastbound off ramp hartfor","type":"Fire in motor home,camper,recreational vehicle","lat":41.755,"long":-92.184},"coordinates":[1443,3216]},{"type":"Point","properties":{"service":"Ladora","time":14,"date":"2/28/07","addr":"and 2421G avenue lincoln township","type":"Cooking fire,confined to container","lat":41.645,"long":-92.183},"coordinates":[1444,2682]},{"type":"Point","properties":{"service":"Ladora","time":13,"date":"1/3/08","addr":"and 1330180th street township ha","type":"Chimney or flue fire,confined to chimney or flue","lat":41.755,"long":-92.184},"coordinates":[1443,3216]},{"type":"Point","properties":{"service":"Ladora","time":4,"date":"1/4/08","addr":"and 180th street and G avenue sumn","type":"Building fire","lat":41.743,"long":-92.182},"coordinates":[1445,3158]},{"type":"Point","properties":{"service":"Ladora","time":4,"date":"2/23/08","addr":"and 407pine street hartford tow","type":"Chimney or flue fire,confined to chimney or flue","lat":41.755,"long":-92.184},"coordinates":[1443,3216]},{"type":"Point","properties":{"service":"Ladora","time":6,"date":"12/12/08","addr":"and 801High Street","type":"Building fire","lat":41.757,"long":-92.184},"coordinates":[1443,3226]},{"type":"Point","properties":{"service":"Ladora","time":10,"date":"12/13/08","addr":"and 1330180th Street","type":"Chimney or flue fire,confined to chimney or flue","lat":41.75,"long":-92.234},"coordinates":[1395,3192]},{"type":"Point","properties":{"service":"Ladora","time":19,"date":"3/12/09","addr":"and 1325220th Street -Hartford 3","type":"Fires in structure other than in a building","lat":41.689,"long":-92.241},"coordinates":[1389,2896]},{"type":"Point","properties":{"service":"Ladora","time":2,"date":"3/15/09","addr":"and 1835JJ Avenue -Sumner 15","type":"Fires in structure other than in a building","lat":41.755,"long":-92.184},"coordinates":[1443,3216]},{"type":"Point","properties":{"service":"Ladora","time":11,"date":"12/3/09","addr":"and 1893H Avenue","type":"Building fire","lat":41.732,"long":-92.162},"coordinates":[1464,3105]},{"type":"Point","properties":{"service":"Ladora","time":7,"date":"6/8/10","addr":"and 1330180th Street","type":"Building fire","lat":41.75,"long":-92.234},"coordinates":[1395,3192]},{"type":"Point","properties":{"service":"Ladora","time":5,"date":"7/23/10","addr":"and 1403160th","type":"Building fire","lat":41.776,"long":-92.22},"coordinates":[1409,3318]},{"type":"Point","properties":{"service":"Ladora","time":8,"date":"12/4/10","addr":"and 1481E avenue","type":"Building fire","lat":41.647,"long":-92.221},"coordinates":[1408,2692]},{"type":"Point","properties":{"service":"Ladora","time":8,"date":"12/4/10","addr":"and 1481e ave.","type":"Building fire","lat":41.647,"long":-92.221},"coordinates":[1408,2692]},{"type":"Point","properties":{"service":"Ladora","time":14,"date":"4/17/12","addr":"and 1894F Ave","type":"Building fire","lat":41.733,"long":-92.202},"coordinates":[1426,3110]},{"type":"Point","properties":{"service":"Ladora","time":10,"date":"5/31/12","addr":"and 1894F ave","type":"Building fire","lat":41.733,"long":-92.202},"coordinates":[1426,3110]},{"type":"Point","properties":{"service":"Ladora","time":9,"date":"5/31/12","addr":"and 1894F ave","type":"Building fire","lat":41.733,"long":-92.202},"coordinates":[1426,3110]},{"type":"Point","properties":{"service":"Ladora","time":4,"date":"3/26/14","addr":"1418A-diagonal ALY","type":"Building fire","lat":41.755,"long":-92.184},"coordinates":[1443,3216]},{"type":"Point","properties":{"service":"Millersburg","time":4,"date":"2/11/07","addr":"2248F52TRL","type":"Building fire","lat":41.744,"long":-93.567},"coordinates":[129,3163]},{"type":"Point","properties":{"service":"Millersburg","time":2,"date":"8/12/07","addr":"791Bush ST","type":"Building fire","lat":41.573,"long":-92.162},"coordinates":[1464,2332]},{"type":"Point","properties":{"service":"Millersburg","time":3,"date":"5/21/08","addr":"2743H AVE","type":"Building fire","lat":41.61,"long":-92.152},"coordinates":[1473,2512]},{"type":"Point","properties":{"service":"Millersburg","time":9,"date":"9/25/11","addr":"2669J AVE","type":"Building fire","lat":41.6,"long":-92.124},"coordinates":[1500,2463]},{"type":"Point","properties":{"service":"North English","time":16,"date":"7/17/04","addr":"3333E AVE","type":"Building fire","lat":41.556,"long":-92.22},"coordinates":[1409,2250]},{"type":"Point","properties":{"service":"North English","time":4,"date":"9/10/04","addr":"132S Main","type":"Building fire","lat":41.515,"long":-92.076},"coordinates":[1546,2050]},{"type":"Point","properties":{"service":"North English","time":7,"date":"9/10/04","addr":"3366NN AVE","type":"Building fire","lat":41.548,"long":-92.033},"coordinates":[1586,2211]},{"type":"Point","properties":{"service":"North English","time":3,"date":"12/28/05","addr":"420W Washington ST","type":"Building fire","lat":41.518,"long":-92.082},"coordinates":[1540,2065]},{"type":"Point","properties":{"service":"North English","time":8,"date":"5/18/06","addr":"3131MM AVE","type":"Building fire","lat":41.548,"long":-92.052},"coordinates":[1568,2211]},{"type":"Point","properties":{"service":"North English","time":5,"date":"8/16/07","addr":"109E Street ST","type":"Building fire","lat":42.054,"long":-91.572},"coordinates":[2024,4669]},{"type":"Point","properties":{"service":"North English","time":15,"date":"3/15/08","addr":"3219S AVE","type":"Building fire","lat":41.535,"long":-91.947},"coordinates":[1668,2148]},{"type":"Point","properties":{"service":"North English","time":7,"date":"7/29/08","addr":"325E Washington ST","type":"Building fire","lat":41.518,"long":-92.073},"coordinates":[1548,2065]},{"type":"Point","properties":{"service":"North English","time":8,"date":"2/19/10","addr":"216N Campbell ST","type":"Building fire","lat":41.516,"long":-92.085},"coordinates":[1537,2055]},{"type":"Point","properties":{"service":"North English","time":2,"date":"4/19/11","addr":"135W SUMMIT ST","type":"Chimney or flue fire,confined to chimney or flue","lat":41.51,"long":-92.077},"coordinates":[1545,2026]},{"type":"Point","properties":{"service":"North English","time":2,"date":"5/23/12","addr":"115W CLARK ST","type":"Building fire","lat":41.514,"long":-92.077},"coordinates":[1545,2045]},{"type":"Point","properties":{"service":"North English","time":4,"date":"10/18/12","addr":"113W Oak ST","type":"Building fire","lat":41.515,"long":-92.077},"coordinates":[1545,2050]},{"type":"Point","properties":{"service":"North English","time":6,"date":"3/18/13","addr":"220N HIGHLAND ST","type":"Chimney or flue fire,confined to chimney or flue","lat":41.517,"long":-92.081},"coordinates":[1541,2060]},{"type":"Point","properties":{"service":"North English","time":17,"date":"4/23/13","addr":"3080O AVE","type":"Building fire","lat":41.557,"long":-92.023},"coordinates":[1596,2254]},{"type":"Point","properties":{"service":"North English","time":5,"date":"6/28/13","addr":"210S COLLEGE ST","type":"Building fire","lat":41.514,"long":-92.081},"coordinates":[1541,2045]},{"type":"Point","properties":{"service":"North English","time":10,"date":"7/16/13","addr":"254E CLARK ST","type":"Building fire","lat":41.514,"long":-92.074},"coordinates":[1547,2045]},{"type":"Point","properties":{"service":"North English","time":7,"date":"10/27/13","addr":"28378KEOKUK IOWA RD","type":"Building fire","lat":41.51,"long":-92.052},"coordinates":[1568,2026]},{"type":"Point","properties":{"service":"Victor","time":7,"date":"2/4/04","addr":"2654B AVE","type":"Building fire","lat":41.776,"long":-92.279},"coordinates":[1353,3318]},{"type":"Point","properties":{"service":"Victor","time":9,"date":"10/22/04","addr":"2598POWESHIEK/IOWA RD","type":"Building fire","lat":41.645,"long":-92.3},"coordinates":[1333,2682]},{"type":"Point","properties":{"service":"Victor","time":10,"date":"11/27/04","addr":"1101E AVE","type":"Building fire","lat":41.775,"long":-92.221},"coordinates":[1408,3314]},{"type":"Point","properties":{"service":"Victor","time":10,"date":"11/19/06","addr":"and 4173Highway 21south","type":"Building fire","lat":41.693,"long":-92.358},"coordinates":[1278,2915]},{"type":"Point","properties":{"service":"Victor","time":8,"date":"1/18/07","addr":"and 1195190th St. Old highway 6","type":"Building fire","lat":41.732,"long":-92.298},"coordinates":[1335,3105]},{"type":"Point","properties":{"service":"Victor","time":10,"date":"6/16/07","addr":"and 4380235th St.","type":"Fires in structure other than in a building","lat":41.663,"long":-92.329},"coordinates":[1305,2769]},{"type":"Point","properties":{"service":"Victor","time":2,"date":"1/14/08","addr":"and 1828Iowa /Poweshiek Road","type":"Building fire","lat":41.737,"long":-92.3},"coordinates":[1333,3129]},{"type":"Point","properties":{"service":"Victor","time":3,"date":"9/18/08","addr":"and 4175highway 21north","type":"Building fire","lat":41.693,"long":-92.358},"coordinates":[1278,2915]},{"type":"Point","properties":{"service":"Victor","time":11,"date":"11/21/08","addr":"and 4177Highway 21S","type":"Building fire","lat":41.691,"long":-92.357},"coordinates":[1279,2905]},{"type":"Point","properties":{"service":"Victor","time":null,"date":"8/19/09","addr":"Highway","type":"Building fire","lat":41.747,"long":-92.318},"coordinates":[1316,3178]},{"type":"Point","properties":{"service":"Victor","time":3,"date":"2/29/12","addr":"and A Diagonal &IA/PO County Line Road\n\nOld Dolmage farm","type":"Building fire","lat":41.732,"long":-92.298},"coordinates":[1335,3105]},{"type":"Point","properties":{"service":"Victor","time":2,"date":"3/15/12","addr":"and 2241Old Highway 6\n\nCarnforth Inn","type":"Building fire","lat":41.732,"long":-92.298},"coordinates":[1335,3105]},{"type":"Point","properties":{"service":"Victor","time":2,"date":"4/16/12","addr":"and 1828Ia/Poweshiek county line\n\nEd DeNeve Farm","type":"Building fire","lat":41.732,"long":-92.298},"coordinates":[1335,3105]},{"type":"Point","properties":{"service":"Victor","time":10,"date":"7/7/12","addr":"4080Highway 21","type":"Building fire","lat":41.707,"long":-92.358},"coordinates":[1278,2983]},{"type":"Point","properties":{"service":"Victor","time":3,"date":"4/5/13","addr":"1764A AVE","type":"Building fire","lat":41.73,"long":-92.289},"coordinates":[1343,3095]},{"type":"Point","properties":{"service":"Victor","time":3,"date":"4/6/13","addr":"2455Highway 6","type":"Building fire","lat":41.747,"long":-92.308},"coordinates":[1325,3178]},{"type":"Point","properties":{"service":"Williamsburg","time":9,"date":"2/8/04","addr":"2405N AVENUE","type":"Building fire","lat":41.658,"long":-92.047},"coordinates":[1573,2745]},{"type":"Point","properties":{"service":"Williamsburg","time":7,"date":"5/10/04","addr":"2119S AVENUE","type":"Building fire","lat":41.699,"long":-91.95},"coordinates":[1665,2944]},{"type":"Point","properties":{"service":"Williamsburg","time":7,"date":"6/15/04","addr":"2438L AVENUE","type":"Building fire","lat":41.653,"long":-92.086},"coordinates":[1536,2721]},{"type":"Point","properties":{"service":"Williamsburg","time":8,"date":"6/16/04","addr":"2545F-52TRAIL","type":"Building fire","lat":43.151,"long":-93.15},"coordinates":[525,9999]},{"type":"Point","properties":{"service":"Williamsburg","time":4,"date":"6/28/04","addr":"707WEST WELSH STREET","type":"Building fire","lat":41.661,"long":-92.016},"coordinates":[1603,2760]},{"type":"Point","properties":{"service":"Williamsburg","time":5,"date":"8/27/04","addr":"2580230TH STREET","type":"Building fire","lat":41.673,"long":-91.991},"coordinates":[1626,2818]},{"type":"Point","properties":{"service":"Williamsburg","time":8,"date":"11/15/04","addr":"103WEST WALNUT STREET","type":"Cooking fire,confined to container","lat":41.663,"long":-92.007},"coordinates":[1611,2769]},{"type":"Point","properties":{"service":"Williamsburg","time":8,"date":"7/2/05","addr":"5068TH AVENUE","type":"Building fire","lat":41.73,"long":-91.997},"coordinates":[1621,3095]},{"type":"Point","properties":{"service":"Williamsburg","time":8,"date":"11/21/05","addr":"2557F-52TRAIL","type":"Building fire","lat":43.151,"long":-93.15},"coordinates":[525,9999]},{"type":"Point","properties":{"service":"Williamsburg","time":8,"date":"12/29/05","addr":"502TANGER DRIVE","type":"Fires in structure other than in a building","lat":41.689,"long":-92.004},"coordinates":[1614,2896]},{"type":"Point","properties":{"service":"Williamsburg","time":8,"date":"1/19/06","addr":"2172M AVENUE","type":"Incinerator overload or malfunction,fire confined","lat":41.691,"long":-92.065},"coordinates":[1556,2905]},{"type":"Point","properties":{"service":"Williamsburg","time":3,"date":"2/8/06","addr":"506SHORT STREET Apt APT 2","type":"Cooking fire,confined to container","lat":41.662,"long":-92.02},"coordinates":[1599,2765]},{"type":"Point","properties":{"service":"Williamsburg","time":10,"date":"4/17/06","addr":"2470PP AVENUE","type":"Building fire","lat":41.648,"long":-91.997},"coordinates":[1621,2697]},{"type":"Point","properties":{"service":"Williamsburg","time":3,"date":"9/25/06","addr":"607NORTH STREET","type":"Cooking fire,confined to container","lat":41.665,"long":-92.014},"coordinates":[1604,2779]},{"type":"Point","properties":{"service":"Williamsburg","time":6,"date":"10/3/06","addr":"2580230TH STREET","type":"Building fire","lat":41.673,"long":-91.991},"coordinates":[1626,2818]},{"type":"Point","properties":{"service":"Williamsburg","time":10,"date":"10/11/06","addr":"2526S AVENUE","type":"Building fire","lat":41.638,"long":-91.949},"coordinates":[1666,2648]},{"type":"Point","properties":{"service":"Williamsburg","time":12,"date":"12/21/06","addr":"3098P AVENUE","type":"Building fire","lat":41.554,"long":-92.004},"coordinates":[1614,2240]},{"type":"Point","properties":{"service":"Williamsburg","time":11,"date":"2/28/07","addr":"2446190TH STREET","type":"Building fire","lat":41.731,"long":-92.036},"coordinates":[1584,3100]},{"type":"Point","properties":{"service":"Williamsburg","time":6,"date":"3/22/07","addr":"2401220TH STREET","type":"Building fire","lat":41.688,"long":-92.026},"coordinates":[1593,2891]},{"type":"Point","properties":{"service":"Williamsburg","time":5,"date":"3/25/07","addr":"340WEST EVANS","type":"Building fire","lat":41.69,"long":-92.012},"coordinates":[1606,2901]},{"type":"Point","properties":{"service":"Williamsburg","time":27,"date":"12/24/07","addr":"2046R AVENUE","type":"Building fire","lat":41.709,"long":-91.969},"coordinates":[1647,2993]},{"type":"Point","properties":{"service":"Williamsburg","time":5,"date":"4/5/08","addr":"101Leo Blvd","type":"Cooking fire,confined to container","lat":41.656,"long":-92.008},"coordinates":[1610,2735]},{"type":"Point","properties":{"service":"Williamsburg","time":14,"date":"4/30/08","addr":"2961F 52Trail","type":"Building fire","lat":43.151,"long":-93.15},"coordinates":[525,9999]},{"type":"Point","properties":{"service":"Williamsburg","time":7,"date":"5/1/08","addr":"2191R AVENUE","type":"Building fire","lat":41.702,"long":-91.969},"coordinates":[1647,2959]},{"type":"Point","properties":{"service":"Williamsburg","time":10,"date":"1/4/09","addr":"229D Street","type":"Building fire","lat":41.731,"long":-92.004},"coordinates":[1614,3100]},{"type":"Point","properties":{"service":"Williamsburg","time":5,"date":"5/19/09","addr":"120TANGER DR","type":"Building fire","lat":41.692,"long":-92.007},"coordinates":[1611,2910]},{"type":"Point","properties":{"service":"Williamsburg","time":6,"date":"6/16/09","addr":"507S WALNUT","type":"Cooking fire,confined to container","lat":41.662,"long":-92.019},"coordinates":[1600,2765]},{"type":"Point","properties":{"service":"Williamsburg","time":11,"date":"9/26/09","addr":"1768R AVENUE","type":"Building fire","lat":41.762,"long":-91.968},"coordinates":[1648,3250]},{"type":"Point","properties":{"service":"Williamsburg","time":5,"date":"10/1/09","addr":"2648240TH ST","type":"Building fire","lat":41.659,"long":-91.971},"coordinates":[1645,2750]},{"type":"Point","properties":{"service":"Williamsburg","time":13,"date":"10/27/09","addr":"6558TH AVE","type":"Building fire","lat":41.729,"long":-91.997},"coordinates":[1621,3090]},{"type":"Point","properties":{"service":"Williamsburg","time":6,"date":"12/5/09","addr":"400NORTH ST","type":"Building fire","lat":41.665,"long":-92.011},"coordinates":[1607,2779]},{"type":"Point","properties":{"service":"Williamsburg","time":5,"date":"12/16/09","addr":"533HAWKEYE DR","type":"Fire in mobile home used as fixed residence","lat":41.681,"long":-92.015},"coordinates":[1603,2857]},{"type":"Point","properties":{"service":"Williamsburg","time":8,"date":"2/24/10","addr":"2630265TH ST","type":"Building fire","lat":41.623,"long":-91.984},"coordinates":[1633,2575]},{"type":"Point","properties":{"service":"Williamsburg","time":3,"date":"7/12/10","addr":"300FRANKLIN ST","type":"Building fire","lat":41.664,"long":-92.006},"coordinates":[1612,2774]},{"type":"Point","properties":{"service":"Williamsburg","time":7,"date":"8/28/10","addr":"335EVANS ST","type":"Building fire","lat":41.69,"long":-92.006},"coordinates":[1612,2901]},{"type":"Point","properties":{"service":"Williamsburg","time":4,"date":"10/3/10","addr":"204E WALNUT","type":"Building fire","lat":41.663,"long":-92.006},"coordinates":[1612,2769]},{"type":"Point","properties":{"service":"Williamsburg","time":9,"date":"10/9/10","addr":"847COAKLEY","type":"Cooking fire,confined to container","lat":41.583,"long":-92.006},"coordinates":[1612,2381]},{"type":"Point","properties":{"service":"Williamsburg","time":2,"date":"11/16/10","addr":"100North St Apt 2","type":"Cooking fire,confined to container","lat":41.665,"long":-92.007},"coordinates":[1611,2779]},{"type":"Point","properties":{"service":"Williamsburg","time":10,"date":"12/9/10","addr":"748F St","type":"Building fire","lat":41.729,"long":-91.997},"coordinates":[1621,3090]},{"type":"Point","properties":{"service":"Williamsburg","time":16,"date":"1/13/11","addr":"2776W AVE","type":"Chimney or flue fire,confined to chimney or flue","lat":41.69,"long":-91.873},"coordinates":[1738,2901]},{"type":"Point","properties":{"service":"Williamsburg","time":6,"date":"3/1/11","addr":"235EVANS ST","type":"Cooking fire,confined to container","lat":41.69,"long":-92.006},"coordinates":[1612,2901]},{"type":"Point","properties":{"service":"Williamsburg","time":4,"date":"4/2/11","addr":"406E STATE ST","type":"Building fire","lat":41.662,"long":-92.002},"coordinates":[1616,2765]},{"type":"Point","properties":{"service":"Williamsburg","time":5,"date":"4/3/11","addr":"406E STATE ST","type":"Building fire","lat":41.662,"long":-92.002},"coordinates":[1616,2765]},{"type":"Point","properties":{"service":"Williamsburg","time":15,"date":"6/1/11","addr":"3331260TH ST","type":"Building fire","lat":41.63,"long":-91.846},"coordinates":[1764,2609]},{"type":"Point","properties":{"service":"Williamsburg","time":7,"date":"9/4/11","addr":"461HATTER AVE","type":"Building fire","lat":41.585,"long":-92.004},"coordinates":[1614,2390]},{"type":"Point","properties":{"service":"Williamsburg","time":8,"date":"9/30/11","addr":"2456U AVE","type":"Fires in structure other than in a building","lat":41.656,"long":-91.91},"coordinates":[1703,2735]},{"type":"Point","properties":{"service":"Williamsburg","time":12,"date":"11/10/11","addr":"2911S AVE","type":"Building fire","lat":41.583,"long":-91.946},"coordinates":[1669,2381]},{"type":"Point","properties":{"service":"Williamsburg","time":8,"date":"1/5/12","addr":"2677280th ST","type":"Building fire","lat":41.601,"long":-91.97},"coordinates":[1646,2468]},{"type":"Point","properties":{"service":"Williamsburg","time":8,"date":"4/27/12","addr":"33210TH AVE","type":"Building fire","lat":41.732,"long":-91.994},"coordinates":[1623,3105]},{"type":"Point","properties":{"service":"Williamsburg","time":5,"date":"2/9/13","addr":"533HAWKEYE DR Apt 2","type":"Building fire","lat":41.681,"long":-92.015},"coordinates":[1603,2857]},{"type":"Point","properties":{"service":"Williamsburg","time":12,"date":"4/29/13","addr":"2911S AVE","type":"Building fire","lat":41.583,"long":-91.946},"coordinates":[1669,2381]},{"type":"Point","properties":{"service":"Williamsburg","time":9,"date":"10/27/13","addr":"100VILLAGE VIEW CIR","type":"Cooking fire,confined to container","lat":41.672,"long":-92.002},"coordinates":[1616,2813]},{"type":"Point","properties":{"service":"Williamsburg","time":7,"date":"11/25/13","addr":"306W OAK ST","type":"Building fire","lat":41.659,"long":-92.01},"coordinates":[1608,2750]},{"type":"Point","properties":{"service":"Williamsburg","time":13,"date":"1/16/14","addr":"2323290th ST","type":"Building fire","lat":41.583,"long":-92.051},"coordinates":[1569,2381]},{"type":"Point","properties":{"service":"Williamsburg","time":10,"date":"2/17/14","addr":"2543Q BLVD","type":"Building fire","lat":41.634,"long":-91.978},"coordinates":[1639,2629]},{"type":"Point","properties":{"service":"Williamsburg","time":7,"date":"3/14/14","addr":"2752200th St.","type":"Chimney or flue fire,confined to chimney or flue","lat":41.716,"long":-91.959},"coordinates":[1657,3027]},{"type":"Point","properties":{"service":"Williamsburg","time":10,"date":"3/21/14","addr":"1862230th ST","type":"Building fire","lat":41.673,"long":-92.132},"coordinates":[1492,2818]},{"type":"Point","properties":{"service":"Williamsburg","time":12,"date":"3/25/14","addr":"3028225th ST","type":"Building fire","lat":41.681,"long":-91.905},"coordinates":[1708,2857]},{"type":"Point","properties":{"service":"Williamsburg","time":2,"date":"5/11/14","addr":"549S Maplewood Drive","type":"Building fire","lat":41.654,"long":-91.998},"coordinates":[1620,2726]},{"type":"Point","properties":{"service":"Williamsburg","time":13,"date":"12/8/14","addr":"1903247TH ST","type":"Building fire","lat":41.648,"long":-92.124},"coordinates":[1500,2697]},{"type":"Point","properties":{"service":"Amana","time":5,"date":"7/15/10","addr":"2812G ST","type":"Building fire","lat":41.801,"long":-91.899},"coordinates":[1714,3440]},{"type":"Point","properties":{"service":"Amana","time":5,"date":"7/15/10","addr":"2812G ST","type":"Building fire","lat":41.801,"long":-91.899},"coordinates":[1714,3440]},{"type":"Point","properties":{"service":"Amana","time":7,"date":"4/3/11","addr":"111127th AVE","type":"Building fire","lat":41.802,"long":-91.9},"coordinates":[1713,3445]},{"type":"Point","properties":{"service":"Amana","time":11,"date":"9/24/11","addr":"3228Benton Iowa RD","type":"Fires in structure other than in a building","lat":41.862,"long":-91.85},"coordinates":[1760,3736]},{"type":"Point","properties":{"service":"Amana","time":9,"date":"8/4/12","addr":"100726th ST","type":"Building fire","lat":41.797,"long":-91.902},"coordinates":[1711,3420]},{"type":"Point","properties":{"service":"Amana","time":10,"date":"11/11/12","addr":"113226th AVE","type":"Cooking fire,confined to container","lat":41.796,"long":-91.902},"coordinates":[1711,3416]},{"type":"Point","properties":{"service":"Amana","time":11,"date":"4/19/13","addr":"306220TH TRL","type":"Chimney or flue fire,confined to chimney or flue","lat":41.776,"long":-91.967},"coordinates":[1649,3318]},{"type":"Point","properties":{"service":"Amana","time":15,"date":"6/22/13","addr":"3192110th ST","type":"Building fire","lat":41.847,"long":-91.855},"coordinates":[1755,3663]},{"type":"Point","properties":{"service":"Amana","time":16,"date":"2/13/14","addr":"3352110th ST","type":"Chimney or flue fire,confined to chimney or flue","lat":41.847,"long":-91.841},"coordinates":[1769,3663]},{"type":"Point","properties":{"service":"Amana","time":17,"date":"2/28/14","addr":"17084th ST","type":"Building fire","lat":41.807,"long":-91.967},"coordinates":[1649,3469]},{"type":"Point","properties":{"service":"Amana","time":13,"date":"4/25/14","addr":"412Street ST","type":"Building fire","lat":41.808,"long":-91.964},"coordinates":[1652,3474]},{"type":"Point","properties":{"service":"Amana","time":6,"date":"6/13/14","addr":"71538th ave AVE","type":"Fire in portable building,fixed location","lat":41.803,"long":-91.878},"coordinates":[1734,3450]},{"type":"Point","properties":{"service":"Coralville","time":9,"date":"1/7/04","addr":"503Grandview CT","type":"Building fire","lat":41.653,"long":-91.559},"coordinates":[2037,2721]},{"type":"Point","properties":{"service":"Coralville","time":7,"date":"1/14/04","addr":"24112nd ST Apt 4","type":"Building fire","lat":41.684,"long":-91.599},"coordinates":[1999,2871]},{"type":"Point","properties":{"service":"Coralville","time":4,"date":"1/17/04","addr":"75822nd AVE","type":"Building fire","lat":41.682,"long":-91.595},"coordinates":[2002,2862]},{"type":"Point","properties":{"service":"Coralville","time":11,"date":"1/28/04","addr":"2420Old Farmstead RD","type":"Building fire","lat":41.705,"long":-91.605},"coordinates":[1993,2973]},{"type":"Point","properties":{"service":"Coralville","time":4,"date":"2/27/04","addr":"60512th AVE","type":"Building fire","lat":41.677,"long":-91.58},"coordinates":[2017,2837]},{"type":"Point","properties":{"service":"Coralville","time":4,"date":"2/27/04","addr":"60712th AVE","type":"Building fire","lat":41.677,"long":-91.58},"coordinates":[2017,2837]},{"type":"Point","properties":{"service":"Coralville","time":6,"date":"3/5/04","addr":"20369th ST","type":"Cooking fire,confined to container","lat":41.684,"long":-91.593},"coordinates":[2004,2871]},{"type":"Point","properties":{"service":"Coralville","time":6,"date":"3/10/04","addr":"95023rd AVE","type":"Cooking fire,confined to container","lat":41.685,"long":-91.598},"coordinates":[2000,2876]},{"type":"Point","properties":{"service":"Coralville","time":3,"date":"3/12/04","addr":"14132nd ST","type":"Cooking fire,confined to container","lat":41.676,"long":-91.584},"coordinates":[2013,2833]},{"type":"Point","properties":{"service":"Coralville","time":7,"date":"4/19/04","addr":"12105th ST","type":"Building fire","lat":41.676,"long":-91.581},"coordinates":[2016,2833]},{"type":"Point","properties":{"service":"Coralville","time":4,"date":"5/1/04","addr":"7057th AVE","type":"Building fire","lat":41.679,"long":-91.574},"coordinates":[2022,2847]},{"type":"Point","properties":{"service":"Coralville","time":9,"date":"5/5/04","addr":"2420Old Farmstead RD","type":"Building fire","lat":41.705,"long":-91.605},"coordinates":[1993,2973]},{"type":"Point","properties":{"service":"Coralville","time":4,"date":"5/8/04","addr":"4046th ST Apt D3","type":"Cooking fire,confined to container","lat":41.676,"long":-91.569},"coordinates":[2027,2833]},{"type":"Point","properties":{"service":"Coralville","time":0,"date":"5/12/04","addr":"4501st AVE","type":"Trash or rubbish fire,contained","lat":41.673,"long":-91.566},"coordinates":[2030,2818]},{"type":"Point","properties":{"service":"Coralville","time":10,"date":"5/20/04","addr":"2125Rosemont DR","type":"Building fire","lat":41.7,"long":-91.591},"coordinates":[2006,2949]},{"type":"Point","properties":{"service":"Coralville","time":8,"date":"5/30/04","addr":"5162nd ST","type":"Cooking fire,confined to container","lat":41.671,"long":-91.574},"coordinates":[2022,2808]},{"type":"Point","properties":{"service":"Coralville","time":4,"date":"6/1/04","addr":"24112nd ST","type":"Building fire","lat":41.684,"long":-91.599},"coordinates":[1999,2871]},{"type":"Point","properties":{"service":"Coralville","time":4,"date":"6/4/04","addr":"1451Coral Ridge AVE Apt 608","type":"Cooking fire,confined to container","lat":41.69,"long":-91.605},"coordinates":[1993,2901]},{"type":"Point","properties":{"service":"Coralville","time":3,"date":"6/15/04","addr":"4201st AVE Apt 102","type":"Building fire","lat":41.673,"long":-91.566},"coordinates":[2030,2818]},{"type":"Point","properties":{"service":"Coralville","time":7,"date":"6/18/04","addr":"2074South Ridge DR","type":"Building fire","lat":41.694,"long":-91.591},"coordinates":[2006,2920]},{"type":"Point","properties":{"service":"Coralville","time":1,"date":"6/21/04","addr":"73120th AVE Apt 4","type":"Cooking fire,confined to container","lat":41.681,"long":-91.591},"coordinates":[2006,2857]},{"type":"Point","properties":{"service":"Coralville","time":7,"date":"6/21/04","addr":"14019th ST","type":"Cooking fire,confined to container","lat":41.684,"long":-91.582},"coordinates":[2015,2871]},{"type":"Point","properties":{"service":"Coralville","time":4,"date":"6/23/04","addr":"6209th ST","type":"Building fire","lat":41.684,"long":-91.579},"coordinates":[2018,2871]},{"type":"Point","properties":{"service":"Coralville","time":8,"date":"7/17/04","addr":"244010th ST","type":"Cooking fire,confined to container","lat":41.688,"long":-91.601},"coordinates":[1997,2891]},{"type":"Point","properties":{"service":"Coralville","time":3,"date":"8/20/04","addr":"73412th AVE","type":"Building fire","lat":41.681,"long":-91.581},"coordinates":[2016,2857]},{"type":"Point","properties":{"service":"Coralville","time":9,"date":"8/22/04","addr":"1Lynncrest CIR","type":"Building fire","lat":41.698,"long":-91.593},"coordinates":[2004,2939]},{"type":"Point","properties":{"service":"Coralville","time":0,"date":"9/19/04","addr":"1451Coral Ridge AVE Apt 306","type":"Trash or rubbish fire,contained","lat":41.69,"long":-91.605},"coordinates":[1993,2901]},{"type":"Point","properties":{"service":"Coralville","time":4,"date":"9/26/04","addr":"4072nd AVE Apt 12","type":"Building fire","lat":41.673,"long":-91.567},"coordinates":[2029,2818]},{"type":"Point","properties":{"service":"Coralville","time":3,"date":"10/6/04","addr":"71513th AVE","type":"Building fire","lat":41.68,"long":-91.581},"coordinates":[2016,2852]},{"type":"Point","properties":{"service":"Coralville","time":5,"date":"10/15/04","addr":"932Boston WAY Apt 4","type":"Cooking fire,confined to container","lat":41.685,"long":-91.6},"coordinates":[1998,2876]},{"type":"Point","properties":{"service":"Coralville","time":13,"date":"10/18/04","addr":"712nd ST","type":"Fires in structure other than in a building","lat":41.668,"long":-91.562},"coordinates":[2034,2794]},{"type":"Point","properties":{"service":"Coralville","time":0,"date":"11/28/04","addr":"4092nd AVE Apt 15","type":"Building fire","lat":41.673,"long":-91.567},"coordinates":[2029,2818]},{"type":"Point","properties":{"service":"Coralville","time":1,"date":"5/1/05","addr":"1900Country Club DR","type":"Building fire","lat":41.699,"long":-91.568},"coordinates":[2028,2944]},{"type":"Point","properties":{"service":"Coralville","time":7,"date":"5/2/05","addr":"217Koser AVE","type":"Cooking fire,confined to container","lat":41.655,"long":-91.558},"coordinates":[2038,2731]},{"type":"Point","properties":{"service":"Coralville","time":8,"date":"5/9/05","addr":"8191st AVE","type":"Building fire","lat":41.681,"long":-91.565},"coordinates":[2031,2857]},{"type":"Point","properties":{"service":"Coralville","time":5,"date":"5/16/05","addr":"1454Valley View CIR","type":"Cooking fire,confined to container","lat":41.693,"long":-91.58},"coordinates":[2017,2915]},{"type":"Point","properties":{"service":"Coralville","time":16,"date":"6/5/05","addr":"304Western Hills","type":"Fire in mobile home used as fixed residence","lat":41.682,"long":-91.596},"coordinates":[2002,2862]},{"type":"Point","properties":{"service":"Coralville","time":5,"date":"11/3/05","addr":"2351Old Hospital RD Apt H101","type":"Cooking fire,confined to container","lat":41.706,"long":-91.599},"coordinates":[1999,2978]},{"type":"Point","properties":{"service":"Coralville","time":4,"date":"11/10/05","addr":"2006th ST","type":"Fuel burner/boiler malfunction,fire confined","lat":41.676,"long":-91.568},"coordinates":[2028,2833]},{"type":"Point","properties":{"service":"Coralville","time":7,"date":"11/16/05","addr":"26512nd ST","type":"Trash or rubbish fire,contained","lat":41.688,"long":-91.606},"coordinates":[1992,2891]},{"type":"Point","properties":{"service":"Coralville","time":2,"date":"11/23/05","addr":"0744th AVE Apt B","type":"Trash or rubbish fire,contained","lat":41.639,"long":-91.528},"coordinates":[2066,2653]},{"type":"Point","properties":{"service":"Coralville","time":10,"date":"12/10/05","addr":"7041st AVE","type":"Cooking fire,confined to container","lat":41.679,"long":-91.567},"coordinates":[2029,2847]},{"type":"Point","properties":{"service":"Coralville","time":4,"date":"1/16/06","addr":"1906Lynncrest DR","type":"Chimney or flue fire,confined to chimney or flue","lat":41.699,"long":-91.594},"coordinates":[2003,2944]},{"type":"Point","properties":{"service":"Coralville","time":3,"date":"2/4/06","addr":"62212th AVE","type":"Fuel burner/boiler malfunction,fire confined","lat":41.678,"long":-91.581},"coordinates":[2016,2842]},{"type":"Point","properties":{"service":"Coralville","time":5,"date":"2/10/06","addr":"1451Coral Ridge AVE","type":"Trash or rubbish fire,contained","lat":41.69,"long":-91.605},"coordinates":[1993,2901]},{"type":"Point","properties":{"service":"Coralville","time":4,"date":"2/26/06","addr":"17555th ST Apt 5","type":"Building fire","lat":41.68,"long":-91.587},"coordinates":[2010,2852]},{"type":"Point","properties":{"service":"Coralville","time":4,"date":"3/12/06","addr":"37012nd ST Apt 394","type":"Fire in mobile home used as fixed residence","lat":41.706,"long":-91.632},"coordinates":[1967,2978]},{"type":"Point","properties":{"service":"Coralville","time":6,"date":"3/13/06","addr":"1351Southview CIR","type":"Chimney or flue fire,confined to chimney or flue","lat":41.69,"long":-91.578},"coordinates":[2019,2901]},{"type":"Point","properties":{"service":"Coralville","time":10,"date":"3/18/06","addr":"1968High View RD","type":"Cooking fire,confined to container","lat":41.699,"long":-91.571},"coordinates":[2025,2944]},{"type":"Point","properties":{"service":"Coralville","time":3,"date":"3/23/06","addr":"2010Terra LN","type":"Cooking fire,confined to container","lat":41.704,"long":-91.591},"coordinates":[2006,2969]},{"type":"Point","properties":{"service":"Coralville","time":7,"date":"3/26/06","addr":"830Timber CT","type":"Cooking fire,confined to container","lat":41.7,"long":-91.581},"coordinates":[2016,2949]},{"type":"Point","properties":{"service":"Coralville","time":8,"date":"4/2/06","addr":"752nd ST","type":"Building fire","lat":41.668,"long":-91.563},"coordinates":[2033,2794]},{"type":"Point","properties":{"service":"Coralville","time":1,"date":"4/13/06","addr":"2187Westminster CIR","type":"Building fire","lat":41.702,"long":-91.554},"coordinates":[2041,2959]},{"type":"Point","properties":{"service":"Coralville","time":1,"date":"4/13/06","addr":"2189Westminster CIR","type":"Building fire","lat":41.702,"long":-91.554},"coordinates":[2041,2959]},{"type":"Point","properties":{"service":"Coralville","time":6,"date":"4/16/06","addr":"888Boston WAY Apt 4","type":"Cooking fire,confined to container","lat":41.687,"long":-91.6},"coordinates":[1998,2886]},{"type":"Point","properties":{"service":"Coralville","time":3,"date":"4/28/06","addr":"22019th ST","type":"Cooking fire,confined to container","lat":41.686,"long":-91.594},"coordinates":[2003,2881]},{"type":"Point","properties":{"service":"Coralville","time":5,"date":"4/29/06","addr":"2332Liberty DR","type":"Cooking fire,confined to container","lat":41.7,"long":-91.62},"coordinates":[1979,2949]},{"type":"Point","properties":{"service":"Coralville","time":8,"date":"5/12/06","addr":"1961South Ridge DR","type":"Cooking fire,confined to container","lat":41.698,"long":-91.588},"coordinates":[2009,2939]},{"type":"Point","properties":{"service":"Coralville","time":7,"date":"5/28/06","addr":"15121st AVE Apt 201B","type":"Building fire","lat":41.695,"long":-91.567},"coordinates":[2029,2925]},{"type":"Point","properties":{"service":"Coralville","time":10,"date":"6/2/06","addr":"3017th ST","type":"Building fire","lat":41.678,"long":-91.568},"coordinates":[2028,2842]},{"type":"Point","properties":{"service":"Coralville","time":7,"date":"6/6/06","addr":"2000Crosspark RD","type":"Chimney or flue fire,confined to chimney or flue","lat":41.703,"long":-91.603},"coordinates":[1995,2964]},{"type":"Point","properties":{"service":"Coralville","time":8,"date":"6/6/06","addr":"2000Crosspark RD","type":"Chimney or flue fire,confined to chimney or flue","lat":41.703,"long":-91.603},"coordinates":[1995,2964]},{"type":"Point","properties":{"service":"Coralville","time":12,"date":"6/21/06","addr":"1721Brown Deer RD","type":"Building fire","lat":41.697,"long":-91.573},"coordinates":[2023,2935]},{"type":"Point","properties":{"service":"Coralville","time":5,"date":"6/23/06","addr":"1451Coral Ridge AVE Apt 1208","type":"Cooking fire,confined to container","lat":41.69,"long":-91.605},"coordinates":[1993,2901]},{"type":"Point","properties":{"service":"Coralville","time":1,"date":"7/2/06","addr":"72520th AVE","type":"Cooking fire,confined to container","lat":41.682,"long":-91.59},"coordinates":[2007,2862]},{"type":"Point","properties":{"service":"Coralville","time":6,"date":"7/2/06","addr":"349Koser AVE","type":"Cooking fire,confined to container","lat":41.654,"long":-91.564},"coordinates":[2032,2726]},{"type":"Point","properties":{"service":"Coralville","time":11,"date":"7/13/06","addr":"1461Coral Ridge AVE Apt 1416","type":"Cooking fire,confined to container","lat":41.694,"long":-91.608},"coordinates":[1990,2920]},{"type":"Point","properties":{"service":"Coralville","time":18,"date":"7/18/06","addr":"240Knowling DR","type":"Cooking fire,confined to container","lat":41.708,"long":-91.566},"coordinates":[2030,2988]},{"type":"Point","properties":{"service":"Coralville","time":6,"date":"7/18/06","addr":"2351Old Hospital RD Apt H101","type":"Cooking fire,confined to container","lat":41.706,"long":-91.599},"coordinates":[1999,2978]},{"type":"Point","properties":{"service":"Coralville","time":3,"date":"8/23/06","addr":"230312th ST","type":"Cooking fire,confined to container","lat":41.689,"long":-91.597},"coordinates":[2001,2896]},{"type":"Point","properties":{"service":"Coralville","time":5,"date":"9/23/06","addr":"211410th ST","type":"Building fire","lat":41.688,"long":-91.592},"coordinates":[2005,2891]},{"type":"Point","properties":{"service":"Coralville","time":6,"date":"10/14/06","addr":"5041st AVE","type":"Building fire","lat":41.674,"long":-91.566},"coordinates":[2030,2823]},{"type":"Point","properties":{"service":"Coralville","time":8,"date":"10/19/06","addr":"4096th AVE","type":"Building fire","lat":41.673,"long":-91.574},"coordinates":[2022,2818]},{"type":"Point","properties":{"service":"Coralville","time":8,"date":"10/20/06","addr":"2149th ST","type":"Cooking fire,confined to container","lat":41.682,"long":-91.566},"coordinates":[2030,2862]},{"type":"Point","properties":{"service":"Coralville","time":9,"date":"10/20/06","addr":"7041/2E 2nd AVE","type":"Building fire","lat":41.68,"long":-91.564},"coordinates":[2032,2852]},{"type":"Point","properties":{"service":"Coralville","time":7,"date":"10/21/06","addr":"7045th AVE","type":"Building fire","lat":41.678,"long":-91.572},"coordinates":[2024,2842]},{"type":"Point","properties":{"service":"Coralville","time":5,"date":"11/7/06","addr":"6111st AVE","type":"Cooking fire,confined to container","lat":41.677,"long":-91.565},"coordinates":[2031,2837]},{"type":"Point","properties":{"service":"Coralville","time":16,"date":"11/12/06","addr":"2110Praire Du Chien RD","type":"Building fire","lat":41.69,"long":-91.524},"coordinates":[2070,2901]},{"type":"Point","properties":{"service":"Coralville","time":6,"date":"11/23/06","addr":"5011st AVE","type":"Building fire","lat":41.674,"long":-91.565},"coordinates":[2031,2823]},{"type":"Point","properties":{"service":"Coralville","time":8,"date":"12/9/06","addr":"4094th AVE","type":"Building fire","lat":41.673,"long":-91.571},"coordinates":[2025,2818]},{"type":"Point","properties":{"service":"Coralville","time":12,"date":"12/13/06","addr":"4074th AVE","type":"Cooking fire,confined to container","lat":41.673,"long":-91.571},"coordinates":[2025,2818]},{"type":"Point","properties":{"service":"Coralville","time":7,"date":"12/14/06","addr":"1710Commercial PARK","type":"Cooking fire,confined to container","lat":41.696,"long":-91.615},"coordinates":[1983,2930]},{"type":"Point","properties":{"service":"Coralville","time":3,"date":"12/20/06","addr":"210E 9th ST Apt 1","type":"Trash or rubbish fire,contained","lat":41.681,"long":-91.562},"coordinates":[2034,2857]},{"type":"Point","properties":{"service":"Coralville","time":7,"date":"12/27/06","addr":"1970Winterpark PL","type":"Cooking fire,confined to container","lat":41.697,"long":-91.589},"coordinates":[2008,2935]},{"type":"Point","properties":{"service":"Coralville","time":10,"date":"10/11/07","addr":"435Koser AVE","type":"Cooking fire,confined to container","lat":41.652,"long":-91.564},"coordinates":[2032,2716]},{"type":"Point","properties":{"service":"Coralville","time":11,"date":"1/7/08","addr":"2351Old Hospital RD Apt H101","type":"Cooking fire,confined to container","lat":41.706,"long":-91.599},"coordinates":[1999,2978]},{"type":"Point","properties":{"service":"Coralville","time":6,"date":"1/7/08","addr":"6186th AVE","type":"Building fire","lat":41.677,"long":-91.574},"coordinates":[2022,2837]},{"type":"Point","properties":{"service":"Coralville","time":8,"date":"1/15/08","addr":"12001st AVE","type":"Building fire","lat":41.688,"long":-91.565},"coordinates":[2031,2891]},{"type":"Point","properties":{"service":"Coralville","time":6,"date":"1/22/08","addr":"956Boston WAY Apt 8","type":"Cooking fire,confined to container","lat":41.687,"long":-91.602},"coordinates":[1996,2886]},{"type":"Point","properties":{"service":"Coralville","time":11,"date":"2/15/08","addr":"1451Coral Ridge AVE Apt 618","type":"Cooking fire,confined to container","lat":41.69,"long":-91.605},"coordinates":[1993,2901]},{"type":"Point","properties":{"service":"Coralville","time":11,"date":"2/15/08","addr":"12201st AVE","type":"Building fire","lat":41.688,"long":-91.566},"coordinates":[2030,2891]},{"type":"Point","properties":{"service":"Coralville","time":4,"date":"2/19/08","addr":"5085th ST Apt 4","type":"Building fire","lat":41.674,"long":-91.573},"coordinates":[2023,2823]},{"type":"Point","properties":{"service":"Coralville","time":11,"date":"2/23/08","addr":"1072nd ST","type":"Building fire","lat":41.67,"long":-91.566},"coordinates":[2030,2803]},{"type":"Point","properties":{"service":"Coralville","time":4,"date":"2/27/08","addr":"1082nd AVE Apt 1","type":"Building fire","lat":41.669,"long":-91.568},"coordinates":[2028,2799]},{"type":"Point","properties":{"service":"Coralville","time":4,"date":"2/28/08","addr":"2102nd ST","type":"Building fire","lat":41.67,"long":-91.569},"coordinates":[2027,2803]},{"type":"Point","properties":{"service":"Coralville","time":13,"date":"3/4/08","addr":"2200Oakdale RD","type":"Cooking fire,confined to container","lat":41.704,"long":-91.595},"coordinates":[2002,2969]},{"type":"Point","properties":{"service":"Coralville","time":5,"date":"3/25/08","addr":"953Boston WAY Apt 3","type":"Cooking fire,confined to container","lat":41.686,"long":-91.601},"coordinates":[1997,2881]},{"type":"Point","properties":{"service":"Coralville","time":5,"date":"4/7/08","addr":"497Linder RD","type":"Building fire","lat":41.69,"long":-91.534},"coordinates":[2060,2901]},{"type":"Point","properties":{"service":"Coralville","time":6,"date":"4/8/08","addr":"36Highland DR","type":"Building fire","lat":41.655,"long":-91.555},"coordinates":[2040,2731]},{"type":"Point","properties":{"service":"Coralville","time":8,"date":"4/12/08","addr":"2041st AVE","type":"Building fire","lat":41.67,"long":-91.566},"coordinates":[2030,2803]},{"type":"Point","properties":{"service":"Coralville","time":6,"date":"4/13/08","addr":"2491Holiday RD","type":"Cooking fire,confined to container","lat":41.698,"long":-91.604},"coordinates":[1994,2939]},{"type":"Point","properties":{"service":"Coralville","time":6,"date":"4/17/08","addr":"110219th AVE","type":"Building fire","lat":41.689,"long":-91.589},"coordinates":[2008,2896]},{"type":"Point","properties":{"service":"Coralville","time":2,"date":"4/18/08","addr":"62812th AVE Apt 2","type":"Cooking fire,confined to container","lat":41.678,"long":-91.581},"coordinates":[2016,2842]},{"type":"Point","properties":{"service":"Coralville","time":8,"date":"5/16/08","addr":"2351Old Hospital RD Apt H101","type":"Cooking fire,confined to container","lat":41.706,"long":-91.599},"coordinates":[1999,2978]},{"type":"Point","properties":{"service":"Coralville","time":9,"date":"5/23/08","addr":"3054th AVE Apt 10","type":"Cooking fire,confined to container","lat":41.672,"long":-91.571},"coordinates":[2025,2813]},{"type":"Point","properties":{"service":"Coralville","time":13,"date":"6/12/08","addr":"1062nd AVE Apt 2","type":"Cooking fire,confined to container","lat":41.669,"long":-91.57},"coordinates":[2026,2799]},{"type":"Point","properties":{"service":"Coralville","time":19,"date":"6/15/08","addr":"4194Prairie Meadow CT","type":"Cooking fire,confined to container","lat":41.691,"long":-91.522},"coordinates":[2072,2905]},{"type":"Point","properties":{"service":"Coralville","time":10,"date":"6/19/08","addr":"10092nd ST","type":"Cooking fire,confined to container","lat":41.674,"long":-91.58},"coordinates":[2017,2823]},{"type":"Point","properties":{"service":"Coralville","time":7,"date":"6/27/08","addr":"1451Coral Ridge AVE Apt 606","type":"Cooking fire,confined to container","lat":41.69,"long":-91.605},"coordinates":[1993,2901]},{"type":"Point","properties":{"service":"Coralville","time":11,"date":"7/9/08","addr":"300E 9th ST","type":"Cooking fire,confined to container","lat":41.681,"long":-91.559},"coordinates":[2037,2857]},{"type":"Point","properties":{"service":"Coralville","time":7,"date":"8/11/08","addr":"12201st AVE","type":"Cooking fire,confined to container","lat":41.688,"long":-91.566},"coordinates":[2030,2891]},{"type":"Point","properties":{"service":"Coralville","time":13,"date":"8/20/08","addr":"1985Holiday RD","type":"Cooking fire,confined to container","lat":41.696,"long":-91.588},"coordinates":[2009,2930]},{"type":"Point","properties":{"service":"Coralville","time":8,"date":"8/23/08","addr":"952Boston WAY","type":"Building fire","lat":41.686,"long":-91.601},"coordinates":[1997,2881]},{"type":"Point","properties":{"service":"Coralville","time":4,"date":"8/27/08","addr":"200520th AVE","type":"Cooking fire,confined to container","lat":41.688,"long":-91.593},"coordinates":[2004,2891]},{"type":"Point","properties":{"service":"Coralville","time":9,"date":"9/2/08","addr":"2200Oakdale RD","type":"Cooking fire,confined to container","lat":41.704,"long":-91.595},"coordinates":[2002,2969]},{"type":"Point","properties":{"service":"Coralville","time":4,"date":"9/16/08","addr":"2149th ST","type":"Cooking fire,confined to container","lat":41.682,"long":-91.566},"coordinates":[2030,2862]},{"type":"Point","properties":{"service":"Coralville","time":7,"date":"9/16/08","addr":"4124th ST","type":"Building fire","lat":41.673,"long":-91.572},"coordinates":[2024,2818]},{"type":"Point","properties":{"service":"Coralville","time":10,"date":"9/19/08","addr":"2520Corridor Way","type":"Cooking fire,confined to container","lat":41.696,"long":-91.606},"coordinates":[1992,2930]},{"type":"Point","properties":{"service":"Coralville","time":8,"date":"9/24/08","addr":"12201st AVE","type":"Cooking fire,confined to container","lat":41.688,"long":-91.566},"coordinates":[2030,2891]},{"type":"Point","properties":{"service":"Coralville","time":6,"date":"9/27/08","addr":"13052nd ST","type":"Cooking fire,confined to container","lat":41.676,"long":-91.584},"coordinates":[2013,2833]},{"type":"Point","properties":{"service":"Coralville","time":6,"date":"9/30/08","addr":"300E 9th ST","type":"Cooking fire,confined to container","lat":41.681,"long":-91.559},"coordinates":[2037,2857]},{"type":"Point","properties":{"service":"Coralville","time":11,"date":"10/10/08","addr":"736Forest Edge DR","type":"Chimney or flue fire,confined to chimney or flue","lat":41.712,"long":-91.579},"coordinates":[2018,3007]},{"type":"Point","properties":{"service":"Coralville","time":5,"date":"10/27/08","addr":"209Holiday RD","type":"Building fire","lat":41.694,"long":-91.569},"coordinates":[2027,2920]},{"type":"Point","properties":{"service":"Coralville","time":8,"date":"11/19/08","addr":"2200Oakdale RD","type":"Cooking fire,confined to container","lat":41.704,"long":-91.595},"coordinates":[2002,2969]},{"type":"Point","properties":{"service":"Coralville","time":7,"date":"11/24/08","addr":"2070Holiday RD Apt 510","type":"Building fire","lat":41.696,"long":-91.593},"coordinates":[2004,2930]},{"type":"Point","properties":{"service":"Coralville","time":4,"date":"11/26/08","addr":"963Boston WAY","type":"Cooking fire,confined to container","lat":41.687,"long":-91.601},"coordinates":[1997,2886]},{"type":"Point","properties":{"service":"Coralville","time":4,"date":"11/26/08","addr":"2351Old Hospital RD Apt H101","type":"Cooking fire,confined to container","lat":41.706,"long":-91.599},"coordinates":[1999,2978]},{"type":"Point","properties":{"service":"Coralville","time":9,"date":"1/20/10","addr":"209Holiday RD Apt 315","type":"Cooking fire,confined to container","lat":41.694,"long":-91.569},"coordinates":[2027,2920]},{"type":"Point","properties":{"service":"Coralville","time":8,"date":"1/26/10","addr":"212413th ST","type":"Cooking fire,confined to container","lat":41.689,"long":-91.593},"coordinates":[2004,2896]},{"type":"Point","properties":{"service":"Coralville","time":11,"date":"2/6/10","addr":"16Auburn East LN","type":"Building fire","lat":41.709,"long":-91.564},"coordinates":[2032,2993]},{"type":"Point","properties":{"service":"Coralville","time":9,"date":"2/9/10","addr":"2794Commerce DR","type":"Cooking fire,confined to container","lat":41.695,"long":-91.61},"coordinates":[1988,2925]},{"type":"Point","properties":{"service":"Coralville","time":17,"date":"2/17/10","addr":"2884Coral CT","type":"Cooking fire,confined to container","lat":41.704,"long":-91.613},"coordinates":[1985,2969]},{"type":"Point","properties":{"service":"Coralville","time":7,"date":"3/4/10","addr":"2551Holiday RD","type":"Building fire","lat":41.7,"long":-91.605},"coordinates":[1993,2949]},{"type":"Point","properties":{"service":"Coralville","time":9,"date":"3/6/10","addr":"15662nd ST","type":"Cooking fire,confined to container","lat":41.676,"long":-91.586},"coordinates":[2011,2833]},{"type":"Point","properties":{"service":"Coralville","time":13,"date":"3/20/10","addr":"37012nd ST","type":"Building fire","lat":41.706,"long":-91.632},"coordinates":[1967,2978]},{"type":"Point","properties":{"service":"Coralville","time":5,"date":"7/27/10","addr":"140110th ST","type":"Cooking fire,confined to container","lat":41.687,"long":-91.582},"coordinates":[2015,2886]},{"type":"Point","properties":{"service":"Coralville","time":4,"date":"8/3/10","addr":"17995th ST","type":"Cooking fire,confined to container","lat":41.68,"long":-91.588},"coordinates":[2009,2852]},{"type":"Point","properties":{"service":"Coralville","time":11,"date":"8/22/10","addr":"2431James ST","type":"Cooking fire,confined to container","lat":41.684,"long":-91.602},"coordinates":[1996,2871]},{"type":"Point","properties":{"service":"Coralville","time":7,"date":"8/30/10","addr":"876Boston WAY Apt 7","type":"Building fire","lat":41.687,"long":-91.6},"coordinates":[1998,2886]},{"type":"Point","properties":{"service":"Coralville","time":9,"date":"9/6/10","addr":"1470Eastview DR","type":"Building fire","lat":41.693,"long":-91.575},"coordinates":[2021,2915]},{"type":"Point","properties":{"service":"Coralville","time":12,"date":"9/7/10","addr":"300Golfview AVE","type":"Cooking fire,confined to container","lat":41.659,"long":-91.556},"coordinates":[2040,2750]},{"type":"Point","properties":{"service":"Coralville","time":4,"date":"9/9/10","addr":"14732nd ST","type":"Cooking fire,confined to container","lat":41.676,"long":-91.584},"coordinates":[2013,2833]},{"type":"Point","properties":{"service":"Coralville","time":5,"date":"9/19/10","addr":"15255th ST","type":"Trash or rubbish fire,contained","lat":41.678,"long":-91.584},"coordinates":[2013,2842]},{"type":"Point","properties":{"service":"Coralville","time":16,"date":"10/7/10","addr":"1507Brown Deer RD","type":"Building fire","lat":41.695,"long":-91.574},"coordinates":[2022,2925]},{"type":"Point","properties":{"service":"Coralville","time":7,"date":"10/25/10","addr":"40521st AVE Apt 405","type":"Building fire","lat":41.685,"long":-91.592},"coordinates":[2005,2876]},{"type":"Point","properties":{"service":"Coralville","time":14,"date":"10/26/10","addr":"4014th AVE Apt D","type":"Building fire","lat":41.673,"long":-91.571},"coordinates":[2025,2818]},{"type":"Point","properties":{"service":"Coralville","time":5,"date":"11/1/10","addr":"192012th AVE","type":"Cooking fire,confined to container","lat":41.701,"long":-91.587},"coordinates":[2010,2954]},{"type":"Point","properties":{"service":"Coralville","time":4,"date":"11/1/10","addr":"404B 6th ST Apt 3","type":"Cooking fire,confined to container","lat":41.676,"long":-91.569},"coordinates":[2027,2833]},{"type":"Point","properties":{"service":"Coralville","time":0,"date":"11/4/10","addr":"73720th AVE","type":"Cooking fire,confined to container","lat":41.681,"long":-91.591},"coordinates":[2006,2857]},{"type":"Point","properties":{"service":"Coralville","time":6,"date":"12/5/10","addr":"1080Ashlynd DR","type":"Building fire","lat":41.701,"long":-91.584},"coordinates":[2013,2954]},{"type":"Point","properties":{"service":"Coralville","time":5,"date":"12/19/10","addr":"62212th AVE Apt 4","type":"Cooking fire,confined to container","lat":41.678,"long":-91.581},"coordinates":[2016,2842]},{"type":"Point","properties":{"service":"Coralville","time":6,"date":"12/29/10","addr":"41910th AVE Apt 1","type":"Cooking fire,confined to container","lat":41.674,"long":-91.578},"coordinates":[2019,2823]},{"type":"Point","properties":{"service":"Coralville","time":4,"date":"1/4/11","addr":"2500Corridor Way Apt 1","type":"Cooking fire,confined to container","lat":41.695,"long":-91.605},"coordinates":[1993,2925]},{"type":"Point","properties":{"service":"Coralville","time":5,"date":"1/5/11","addr":"209Holiday RD","type":"Cooking fire,confined to container","lat":41.694,"long":-91.569},"coordinates":[2027,2920]},{"type":"Point","properties":{"service":"Coralville","time":6,"date":"1/10/11","addr":"2781Oakdale BLVD Apt 1","type":"Incinerator overload or malfunction,fire confined","lat":41.709,"long":-91.611},"coordinates":[1987,2993]},{"type":"Point","properties":{"service":"Coralville","time":10,"date":"2/2/11","addr":"1022nd AVE Apt D","type":"Building fire","lat":41.669,"long":-91.569},"coordinates":[2027,2799]},{"type":"Point","properties":{"service":"Coralville","time":7,"date":"2/17/11","addr":"14019th ST","type":"Cooking fire,confined to container","lat":41.684,"long":-91.582},"coordinates":[2015,2871]},{"type":"Point","properties":{"service":"Coralville","time":9,"date":"2/20/11","addr":"1022nd AVE","type":"Cooking fire,confined to container","lat":41.669,"long":-91.569},"coordinates":[2027,2799]},{"type":"Point","properties":{"service":"Coralville","time":9,"date":"2/20/11","addr":"2000James ST","type":"Building fire","lat":41.679,"long":-91.594},"coordinates":[2003,2847]},{"type":"Point","properties":{"service":"Coralville","time":10,"date":"2/27/11","addr":"1921South Ridge CT","type":"Cooking fire,confined to container","lat":41.698,"long":-91.587},"coordinates":[2010,2939]},{"type":"Point","properties":{"service":"Coralville","time":5,"date":"3/7/11","addr":"2421James ST Apt 32","type":"Building fire","lat":41.683,"long":-91.601},"coordinates":[1997,2867]},{"type":"Point","properties":{"service":"Coralville","time":6,"date":"3/9/11","addr":"8101st AVE","type":"Building fire","lat":41.681,"long":-91.566},"coordinates":[2030,2857]},{"type":"Point","properties":{"service":"Coralville","time":7,"date":"3/20/11","addr":"31Redtail DR Apt 9","type":"Cooking fire,confined to container","lat":41.687,"long":-91.567},"coordinates":[2029,2886]},{"type":"Point","properties":{"service":"Coralville","time":3,"date":"3/25/11","addr":"231712th ST","type":"Building fire","lat":41.689,"long":-91.597},"coordinates":[2001,2896]},{"type":"Point","properties":{"service":"Coralville","time":10,"date":"4/11/11","addr":"868Boston WAY","type":"Building fire","lat":41.688,"long":-91.6},"coordinates":[1998,2891]},{"type":"Point","properties":{"service":"Coralville","time":9,"date":"4/23/11","addr":"2491Holiday RD Apt 301","type":"Cooking fire,confined to container","lat":41.698,"long":-91.604},"coordinates":[1994,2939]},{"type":"Point","properties":{"service":"Coralville","time":12,"date":"4/27/11","addr":"872nd ST","type":"Cooking fire,confined to container","lat":41.669,"long":-91.563},"coordinates":[2033,2799]},{"type":"Point","properties":{"service":"Coralville","time":8,"date":"5/19/11","addr":"250Koser AVE","type":"Cooking fire,confined to container","lat":41.655,"long":-91.559},"coordinates":[2037,2731]},{"type":"Point","properties":{"service":"Coralville","time":0,"date":"6/2/11","addr":"223410th ST Apt 4","type":"Cooking fire,confined to container","lat":41.688,"long":-91.595},"coordinates":[2002,2891]},{"type":"Point","properties":{"service":"Coralville","time":6,"date":"6/9/11","addr":"1449Valley View DR Apt B","type":"Cooking fire,confined to container","lat":41.692,"long":-91.581},"coordinates":[2016,2910]},{"type":"Point","properties":{"service":"Coralville","time":5,"date":"6/9/11","addr":"209Holiday RD Apt 125","type":"Building fire","lat":41.694,"long":-91.569},"coordinates":[2027,2920]},{"type":"Point","properties":{"service":"Coralville","time":5,"date":"7/9/11","addr":"14712nd ST","type":"Cooking fire,confined to container","lat":41.676,"long":-91.584},"coordinates":[2013,2833]},{"type":"Point","properties":{"service":"Coralville","time":7,"date":"8/23/11","addr":"2551Heartland PL","type":"Trash or rubbish fire,contained","lat":41.699,"long":-91.609},"coordinates":[1989,2944]},{"type":"Point","properties":{"service":"Coralville","time":6,"date":"9/4/11","addr":"72011th AVE","type":"Building fire","lat":41.68,"long":-91.58},"coordinates":[2017,2852]},{"type":"Point","properties":{"service":"Coralville","time":10,"date":"9/11/11","addr":"600Grandview CT Apt 612","type":"Cooking fire,confined to container","lat":41.653,"long":-91.558},"coordinates":[2038,2721]},{"type":"Point","properties":{"service":"Coralville","time":7,"date":"10/1/11","addr":"2491Holiday RD","type":"Cooking fire,confined to container","lat":41.698,"long":-91.604},"coordinates":[1994,2939]},{"type":"Point","properties":{"service":"Coralville","time":4,"date":"10/25/11","addr":"22659th ST","type":"Building fire","lat":41.685,"long":-91.597},"coordinates":[2001,2876]},{"type":"Point","properties":{"service":"Coralville","time":8,"date":"10/29/11","addr":"5025th ST Apt 5","type":"Fuel burner/boiler malfunction,fire confined","lat":41.674,"long":-91.572},"coordinates":[2024,2823]},{"type":"Point","properties":{"service":"Coralville","time":0,"date":"11/3/11","addr":"15127th ST","type":"Cooking fire,confined to container","lat":41.678,"long":-91.583},"coordinates":[2014,2842]},{"type":"Point","properties":{"service":"Coralville","time":8,"date":"11/13/11","addr":"1082nd AVE","type":"Fuel burner/boiler malfunction,fire confined","lat":41.669,"long":-91.568},"coordinates":[2028,2799]},{"type":"Point","properties":{"service":"Coralville","time":8,"date":"11/20/11","addr":"1022nd AVE","type":"Cooking fire,confined to container","lat":41.669,"long":-91.569},"coordinates":[2027,2799]},{"type":"Point","properties":{"service":"Coralville","time":2,"date":"11/30/11","addr":"41410th AVE Apt B","type":"Cooking fire,confined to container","lat":41.674,"long":-91.579},"coordinates":[2018,2823]},{"type":"Point","properties":{"service":"Coralville","time":9,"date":"12/13/11","addr":"37012nd ST Apt 346","type":"Fire in mobile home used as fixed residence","lat":41.706,"long":-91.632},"coordinates":[1967,2978]},{"type":"Point","properties":{"service":"Coralville","time":1,"date":"12/13/11","addr":"60411th AVE","type":"Cooking fire,confined to container","lat":41.677,"long":-91.58},"coordinates":[2017,2837]},{"type":"Point","properties":{"service":"Coralville","time":8,"date":"12/19/11","addr":"37012nd ST Apt 357","type":"Building fire","lat":41.706,"long":-91.632},"coordinates":[1967,2978]},{"type":"Point","properties":{"service":"Coralville","time":4,"date":"12/19/11","addr":"202910th ST","type":"Building fire","lat":41.688,"long":-91.592},"coordinates":[2005,2891]},{"type":"Point","properties":{"service":"Coralville","time":3,"date":"12/22/11","addr":"170812th AVE","type":"Building fire","lat":41.697,"long":-91.585},"coordinates":[2012,2935]},